<?xml version="1.0" encoding="utf-8" ?>
<BusDynInfo>
 <EssentialInfo>
  <Location>
   <name>BUS</name>
   <CenterName>Maxwin</CenterName>
  </Location>
  <UpdateTime>2014-08-11 15:18:32</UpdateTime>
  <CoordinateSystem></CoordinateSystem>
 </EssentialInfo>
 <BusInfo>
<Stop Id="5001" routeId="0北" nameZh="金獅湖站" seqNo="1" pgp="0" terminal="0" districtId="1" GoBack="1" latitude="22.6658" longitude="120.322" EXTVoiceNO="05001" />
<Stop Id="5107" routeId="0北" nameZh="金鼎路口" seqNo="2" pgp="0" terminal="0" districtId="1" GoBack="1" latitude="22.6644" longitude="120.3216" EXTVoiceNO="21095" />
<Stop Id="5108" routeId="0北" nameZh="金山路口" seqNo="3" pgp="0" terminal="0" districtId="1" GoBack="1" latitude="22.6627" longitude="120.3217" EXTVoiceNO="05108" />
<Stop Id="5177" routeId="0北" nameZh="鼎西里" seqNo="4" pgp="0" terminal="0" districtId="1" GoBack="1" latitude="22.661" longitude="120.322" EXTVoiceNO="05109" />
<Stop Id="5176" routeId="0北" nameZh="鼎金國小" seqNo="5" pgp="0" terminal="0" districtId="1" GoBack="1" latitude="22.6568" longitude="120.3213" EXTVoiceNO="05110" />
<Stop Id="5175" routeId="0北" nameZh="鼎金國中" seqNo="6" pgp="0" terminal="0" districtId="1" GoBack="1" latitude="22.6548" longitude="120.3198" EXTVoiceNO="05111" />
<Stop Id="4067" routeId="0北" nameZh="鼎山街口" seqNo="7" pgp="0" terminal="0" districtId="1" GoBack="1" latitude="22.6525" longitude="120.3201" EXTVoiceNO="04067" />
<Stop Id="4068" routeId="0北" nameZh="大順二路" seqNo="8" pgp="0" terminal="0" districtId="1" GoBack="1" latitude="22.6507" longitude="120.3227" EXTVoiceNO="04068" />
<Stop Id="3437" routeId="0北" nameZh="建工路口(高雄高工)" seqNo="9" pgp="0" terminal="0" districtId="1" GoBack="1" latitude="22.6494" longitude="120.3244" EXTVoiceNO="03437" />
<Stop Id="1329" routeId="0北" nameZh="正興國小" seqNo="10" pgp="0" terminal="0" districtId="1" GoBack="1" latitude="22.645" longitude="120.3261" EXTVoiceNO="01329" />
<Stop Id="1330" routeId="0北" nameZh="樹德家商" seqNo="11" pgp="0" terminal="0" districtId="1" GoBack="1" latitude="22.6431" longitude="120.3266" EXTVoiceNO="01330" />
<Stop Id="1331" routeId="0北" nameZh="大順陸橋" seqNo="12" pgp="0" terminal="0" districtId="1" GoBack="1" latitude="22.6409" longitude="120.3273" EXTVoiceNO="00303" />
<Stop Id="1332" routeId="0北" nameZh="憲政路口" seqNo="13" pgp="0" terminal="0" districtId="1" GoBack="1" latitude="22.6346" longitude="120.3262" EXTVoiceNO="01332" />
<Stop Id="0445" routeId="0北" nameZh="福德市場" seqNo="14" pgp="0" terminal="0" districtId="1" GoBack="1" latitude="22.633" longitude="120.3273" EXTVoiceNO="00403" />
<Stop Id="1334" routeId="0北" nameZh="建國一路口" seqNo="15" pgp="0" terminal="0" districtId="1" GoBack="1" latitude="22.6322" longitude="120.3281" EXTVoiceNO="01314" />
<Stop Id="1343" routeId="0北" nameZh="捷運五塊厝站" seqNo="16" pgp="0" terminal="0" districtId="1" GoBack="1" latitude="22.63" longitude="120.3277" EXTVoiceNO="00062" />
<Stop Id="1335" routeId="0北" nameZh="福安路口" seqNo="17" pgp="0" terminal="0" districtId="1" GoBack="1" latitude="22.6281" longitude="120.3273" EXTVoiceNO="01313" />
<Stop Id="4077" routeId="0北" nameZh="四維一路" seqNo="18" pgp="0" terminal="0" districtId="1" GoBack="1" latitude="22.6246" longitude="120.3257" EXTVoiceNO="04077" />
<Stop Id="4078" routeId="0北" nameZh="凱旋醫院(民生醫院)" seqNo="19" pgp="0" terminal="0" districtId="1" GoBack="1" latitude="22.6241" longitude="120.3243" EXTVoiceNO="04017" />
<Stop Id="4079" routeId="0北" nameZh="長青服務中心" seqNo="20" pgp="0" terminal="0" districtId="1" GoBack="1" latitude="22.623" longitude="120.3212" EXTVoiceNO="04079" />
<Stop Id="4080" routeId="0北" nameZh="廣東一街口" seqNo="21" pgp="0" terminal="0" districtId="1" GoBack="1" latitude="22.6226" longitude="120.3199" EXTVoiceNO="04080" />
<Stop Id="4081" routeId="0北" nameZh="光華路口" seqNo="22" pgp="0" terminal="0" districtId="1" GoBack="1" latitude="22.6218" longitude="120.3172" EXTVoiceNO="02712" />
<Stop Id="4082" routeId="0北" nameZh="復華中學" seqNo="23" pgp="0" terminal="0" districtId="1" GoBack="1" latitude="22.6206" longitude="120.3141" EXTVoiceNO="04082" />
<Stop Id="4083" routeId="0北" nameZh="市政大樓" seqNo="24" pgp="0" terminal="0" districtId="1" GoBack="1" latitude="22.62" longitude="120.3116" EXTVoiceNO="01121" />
<Stop Id="4084" routeId="0北" nameZh="忠孝路口" seqNo="25" pgp="0" terminal="0" districtId="1" GoBack="1" latitude="22.6186" longitude="120.3081" EXTVoiceNO="00410" />
<Stop Id="4085" routeId="0北" nameZh="苓雅國中" seqNo="26" pgp="0" terminal="0" districtId="1" GoBack="1" latitude="22.6176" longitude="120.3051" EXTVoiceNO="01216" />
<Stop Id="4086" routeId="0北" nameZh="中華四路口" seqNo="27" pgp="0" terminal="0" districtId="1" GoBack="1" latitude="22.6166" longitude="120.3021" EXTVoiceNO="04086" />
<Stop Id="4087" routeId="0北" nameZh="自強三路口" seqNo="28" pgp="0" terminal="0" districtId="1" GoBack="1" latitude="22.6155" longitude="120.2988" EXTVoiceNO="04087" />
<Stop Id="1624" routeId="0北" nameZh="苓雅市場" seqNo="29" pgp="0" terminal="0" districtId="1" GoBack="1" latitude="22.617" longitude="120.2968" EXTVoiceNO="01624" />
<Stop Id="1027" routeId="0北" nameZh="漢神百貨" seqNo="30" pgp="0" terminal="0" districtId="1" GoBack="1" latitude="22.6191" longitude="120.2959" EXTVoiceNO="01027" />
<Stop Id="0018" routeId="0北" nameZh="高雄女中" seqNo="31" pgp="0" terminal="0" districtId="1" GoBack="1" latitude="22.6206" longitude="120.2922" EXTVoiceNO="00018" />
<Stop Id="0019" routeId="0北" nameZh="大成街口(真愛碼頭)" seqNo="32" pgp="0" terminal="0" districtId="1" GoBack="1" latitude="22.6212" longitude="120.2885" EXTVoiceNO="00019" />
<Stop Id="0020" routeId="0北" nameZh="大智路口" seqNo="33" pgp="0" terminal="0" districtId="1" GoBack="1" latitude="22.6217" longitude="120.2874" EXTVoiceNO="00020" />
<Stop Id="0424" routeId="0北" nameZh="大智路" seqNo="34" pgp="0" terminal="0" districtId="1" GoBack="1" latitude="22.6235" longitude="120.2866" EXTVoiceNO="00424" />
<Stop Id="4002" routeId="0北" nameZh="捷運鹽埕埔站(大仁路)" seqNo="35" pgp="0" terminal="0" districtId="1" GoBack="1" latitude="22.6252" longitude="120.2854" EXTVoiceNO="04000" />
<Stop Id="0544" routeId="0北" nameZh="歷史博物館(高雄國際會議中心)" seqNo="36" pgp="0" terminal="0" districtId="1" GoBack="1" latitude="22.6262" longitude="120.2869" EXTVoiceNO="20906" />
<Stop Id="0545" routeId="0北" nameZh="台灣銀行" seqNo="37" pgp="0" terminal="0" districtId="1" GoBack="1" latitude="22.6277" longitude="120.2913" EXTVoiceNO="00545" />
<Stop Id="0546" routeId="0北" nameZh="教育局(舊市議會)" seqNo="38" pgp="0" terminal="0" districtId="1" GoBack="1" latitude="22.6281" longitude="120.2932" EXTVoiceNO="21096" />
<Stop Id="4055" routeId="0北" nameZh="六合二路口" seqNo="39" pgp="0" terminal="0" districtId="1" GoBack="1" latitude="22.6311" longitude="120.2953" EXTVoiceNO="04040" />
<Stop Id="4056" routeId="0北" nameZh="七賢二路口" seqNo="40" pgp="0" terminal="0" districtId="1" GoBack="1" latitude="22.6333" longitude="120.2945" EXTVoiceNO="01525" />
<Stop Id="4057" routeId="0北" nameZh="三民市場" seqNo="41" pgp="0" terminal="0" districtId="1" GoBack="1" latitude="22.636" longitude="120.2933" EXTVoiceNO="04038" />
<Stop Id="4058" routeId="0北" nameZh="九如三路口" seqNo="42" pgp="0" terminal="0" districtId="1" GoBack="1" latitude="22.6416" longitude="120.2917" EXTVoiceNO="04058" />
<Stop Id="0317" routeId="0北" nameZh="變電所" seqNo="43" pgp="0" terminal="0" districtId="1" GoBack="1" latitude="22.6461" longitude="120.2919" EXTVoiceNO="04036" />
<Stop Id="4060" routeId="0北" nameZh="龍子里" seqNo="44" pgp="0" terminal="0" districtId="1" GoBack="1" latitude="22.651" longitude="120.2921" EXTVoiceNO="04035" />
<Stop Id="4095" routeId="0北" nameZh="裕誠路口" seqNo="45" pgp="0" terminal="0" districtId="1" GoBack="1" latitude="22.6539" longitude="120.2944" EXTVoiceNO="05622" />
<Stop Id="4061" routeId="0北" nameZh="龍德路口" seqNo="46" pgp="0" terminal="0" districtId="1" GoBack="1" latitude="22.6547" longitude="120.2966" EXTVoiceNO="04061" />
<Stop Id="8618" routeId="0北" nameZh="龍華國小" seqNo="47" pgp="0" terminal="0" districtId="1" GoBack="1" latitude="22.6551" longitude="120.2989" EXTVoiceNO="04033" />
<Stop Id="4062" routeId="0北" nameZh="捷運凹子底站" seqNo="48" pgp="0" terminal="0" districtId="1" GoBack="1" latitude="22.6559" longitude="120.3026" EXTVoiceNO="04062" />
<Stop Id="4063" routeId="0北" nameZh="大順一路(好市多)" seqNo="49" pgp="0" terminal="0" districtId="1" GoBack="1" latitude="22.6568" longitude="120.3064" EXTVoiceNO="04060" />
<Stop Id="4064" routeId="0北" nameZh="龍華國中" seqNo="50" pgp="0" terminal="0" districtId="1" GoBack="1" latitude="22.6567" longitude="120.3096" EXTVoiceNO="05662" />
<Stop Id="4088" routeId="0北" nameZh="慈濟靜思堂(新上國小)" seqNo="51" pgp="0" terminal="0" districtId="1" GoBack="1" latitude="22.6558" longitude="120.313" EXTVoiceNO="04088" />
<Stop Id="4065" routeId="0北" nameZh="大統新世紀" seqNo="52" pgp="0" terminal="0" districtId="1" GoBack="1" latitude="22.6555" longitude="120.3149" EXTVoiceNO="04065" />
<Stop Id="4066" routeId="0北" nameZh="和順街口" seqNo="53" pgp="0" terminal="0" districtId="1" GoBack="1" latitude="22.6548" longitude="120.3168" EXTVoiceNO="04066" />
<Stop Id="5111" routeId="0北" nameZh="鼎金國中" seqNo="54" pgp="0" terminal="0" districtId="1" GoBack="1" latitude="22.6546" longitude="120.3196" EXTVoiceNO="05111" />
<Stop Id="5110" routeId="0北" nameZh="鼎金國小" seqNo="55" pgp="0" terminal="0" districtId="1" GoBack="1" latitude="22.6568" longitude="120.3213" EXTVoiceNO="05110" />
<Stop Id="5109" routeId="0北" nameZh="鼎西里" seqNo="56" pgp="0" terminal="0" districtId="1" GoBack="1" latitude="22.6608" longitude="120.322" EXTVoiceNO="05109" />
<Stop Id="5178" routeId="0北" nameZh="金山路口" seqNo="57" pgp="0" terminal="0" districtId="1" GoBack="1" latitude="22.6622" longitude="120.3219" EXTVoiceNO="05108" />
<Stop Id="5179" routeId="0北" nameZh="金鼎路口" seqNo="58" pgp="0" terminal="0" districtId="1" GoBack="1" latitude="22.6642" longitude="120.3217" EXTVoiceNO="21095" />
<Stop Id="5000" routeId="0北" nameZh="金獅湖站" seqNo="59" pgp="0" terminal="0" districtId="1" GoBack="1" latitude="22.6658" longitude="120.322" EXTVoiceNO="05001" />
<Stop Id="5001" routeId="0南" nameZh="金獅湖站" seqNo="1" pgp="0" terminal="0" districtId="1" GoBack="1" latitude="22.6662" longitude="120.322" EXTVoiceNO="05001" />
<Stop Id="5107" routeId="0南" nameZh="金鼎路口" seqNo="2" pgp="0" terminal="0" districtId="1" GoBack="1" latitude="22.6644" longitude="120.3216" EXTVoiceNO="21095" />
<Stop Id="5108" routeId="0南" nameZh="金山路口" seqNo="3" pgp="0" terminal="0" districtId="1" GoBack="1" latitude="22.6627" longitude="120.3217" EXTVoiceNO="05108" />
<Stop Id="5177" routeId="0南" nameZh="鼎西里" seqNo="4" pgp="0" terminal="0" districtId="1" GoBack="1" latitude="22.661" longitude="120.322" EXTVoiceNO="05109" />
<Stop Id="5176" routeId="0南" nameZh="鼎金國小" seqNo="5" pgp="0" terminal="0" districtId="1" GoBack="1" latitude="22.6569" longitude="120.3213" EXTVoiceNO="05110" />
<Stop Id="5175" routeId="0南" nameZh="鼎金國中" seqNo="6" pgp="0" terminal="0" districtId="1" GoBack="1" latitude="22.6548" longitude="120.3198" EXTVoiceNO="05111" />
<Stop Id="4029" routeId="0南" nameZh="和順街口" seqNo="7" pgp="0" terminal="0" districtId="1" GoBack="1" latitude="22.6551" longitude="120.3167" EXTVoiceNO="04066" />
<Stop Id="4030" routeId="0南" nameZh="大統新世紀" seqNo="8" pgp="0" terminal="0" districtId="1" GoBack="1" latitude="22.6557" longitude="120.315" EXTVoiceNO="04065" />
<Stop Id="4090" routeId="0南" nameZh="慈濟靜思堂(新上國小)" seqNo="9" pgp="0" terminal="0" districtId="1" GoBack="1" latitude="22.6562" longitude="120.3114" EXTVoiceNO="04088" />
<Stop Id="4031" routeId="0南" nameZh="龍華國中" seqNo="10" pgp="0" terminal="0" districtId="1" GoBack="1" latitude="22.6566" longitude="120.3095" EXTVoiceNO="05662" />
<Stop Id="4032" routeId="0南" nameZh="大順一路(好市多)" seqNo="11" pgp="0" terminal="0" districtId="1" GoBack="1" latitude="22.657" longitude="120.3064" EXTVoiceNO="04060" />
<Stop Id="4033" routeId="0南" nameZh="捷運凹子底站(大順一路)" seqNo="12" pgp="0" terminal="0" districtId="1" GoBack="1" latitude="22.6561" longitude="120.3027" EXTVoiceNO="04062" />
<Stop Id="8777" routeId="0南" nameZh="龍華國小" seqNo="13" pgp="0" terminal="0" districtId="1" GoBack="1" latitude="22.6553" longitude="120.2997" EXTVoiceNO="04033" />
<Stop Id="4034" routeId="0南" nameZh="龍德路口" seqNo="14" pgp="0" terminal="0" districtId="1" GoBack="1" latitude="22.6548" longitude="120.2972" EXTVoiceNO="04061" />
<Stop Id="4096" routeId="0南" nameZh="裕誠路口" seqNo="15" pgp="0" terminal="0" districtId="1" GoBack="1" latitude="22.654" longitude="120.2942" EXTVoiceNO="05622" />
<Stop Id="4035" routeId="0南" nameZh="龍子里" seqNo="16" pgp="0" terminal="0" districtId="1" GoBack="1" latitude="22.6517" longitude="120.2919" EXTVoiceNO="04035" />
<Stop Id="4036" routeId="0南" nameZh="變電所" seqNo="17" pgp="0" terminal="0" districtId="1" GoBack="1" latitude="22.6466" longitude="120.2915" EXTVoiceNO="04036" />
<Stop Id="4037" routeId="0南" nameZh="九如三路口" seqNo="18" pgp="0" terminal="0" districtId="1" GoBack="1" latitude="22.6424" longitude="120.2915" EXTVoiceNO="04058" />
<Stop Id="4038" routeId="0南" nameZh="三民市場" seqNo="19" pgp="0" terminal="0" districtId="1" GoBack="1" latitude="22.6358" longitude="120.2933" EXTVoiceNO="04038" />
<Stop Id="4039" routeId="0南" nameZh="七賢二路口" seqNo="20" pgp="0" terminal="0" districtId="1" GoBack="1" latitude="22.6332" longitude="120.2944" EXTVoiceNO="01525" />
<Stop Id="4040" routeId="0南" nameZh="六合二路口" seqNo="21" pgp="0" terminal="0" districtId="1" GoBack="1" latitude="22.6312" longitude="120.2952" EXTVoiceNO="04040" />
<Stop Id="0528" routeId="0南" nameZh="教育局(舊市議會)" seqNo="22" pgp="0" terminal="0" districtId="1" GoBack="1" latitude="22.6282" longitude="120.2922" EXTVoiceNO="21096" />
<Stop Id="0529" routeId="0南" nameZh="台灣銀行" seqNo="23" pgp="0" terminal="0" districtId="1" GoBack="1" latitude="22.6274" longitude="120.2899" EXTVoiceNO="00545" />
<Stop Id="0530" routeId="0南" nameZh="歷史博物館(高雄國際會議中心)" seqNo="24" pgp="0" terminal="0" districtId="1" GoBack="1" latitude="22.6262" longitude="120.2869" EXTVoiceNO="20906" />
<Stop Id="4000" routeId="0南" nameZh="捷運鹽埕埔站(大仁路)" seqNo="25" pgp="0" terminal="0" districtId="1" GoBack="1" latitude="22.6252" longitude="120.2852" EXTVoiceNO="04000" />
<Stop Id="0425" routeId="0南" nameZh="大智路" seqNo="26" pgp="0" terminal="0" districtId="1" GoBack="1" latitude="22.6236" longitude="120.2866" EXTVoiceNO="00424" />
<Stop Id="0033" routeId="0南" nameZh="大智路口" seqNo="27" pgp="0" terminal="0" districtId="1" GoBack="1" latitude="22.6219" longitude="120.2869" EXTVoiceNO="00020" />
<Stop Id="0034" routeId="0南" nameZh="大成街口(真愛碼頭)" seqNo="28" pgp="0" terminal="0" districtId="1" GoBack="1" latitude="22.6211" longitude="120.2885" EXTVoiceNO="00019" />
<Stop Id="0035" routeId="0南" nameZh="高雄女中" seqNo="29" pgp="0" terminal="0" districtId="1" GoBack="1" latitude="22.6206" longitude="120.2921" EXTVoiceNO="00018" />
<Stop Id="1037" routeId="0南" nameZh="漢神百貨" seqNo="30" pgp="0" terminal="0" districtId="1" GoBack="1" latitude="22.6191" longitude="120.2956" EXTVoiceNO="01027" />
<Stop Id="1640" routeId="0南" nameZh="苓雅市場" seqNo="31" pgp="0" terminal="0" districtId="1" GoBack="1" latitude="22.6168" longitude="120.2967" EXTVoiceNO="01624" />
<Stop Id="4008" routeId="0南" nameZh="自強三路口" seqNo="32" pgp="0" terminal="0" districtId="1" GoBack="1" latitude="22.6154" longitude="120.2988" EXTVoiceNO="04087" />
<Stop Id="4009" routeId="0南" nameZh="中華四路口" seqNo="33" pgp="0" terminal="0" districtId="1" GoBack="1" latitude="22.6165" longitude="120.3021" EXTVoiceNO="04086" />
<Stop Id="4010" routeId="0南" nameZh="苓雅國中" seqNo="34" pgp="0" terminal="0" districtId="1" GoBack="1" latitude="22.6175" longitude="120.3051" EXTVoiceNO="01216" />
<Stop Id="4011" routeId="0南" nameZh="忠孝路口" seqNo="35" pgp="0" terminal="0" districtId="1" GoBack="1" latitude="22.6183" longitude="120.3081" EXTVoiceNO="00410" />
<Stop Id="4012" routeId="0南" nameZh="市政大樓" seqNo="36" pgp="0" terminal="0" districtId="1" GoBack="1" latitude="22.6195" longitude="120.312" EXTVoiceNO="01121" />
<Stop Id="4013" routeId="0南" nameZh="復華中學" seqNo="37" pgp="0" terminal="0" districtId="1" GoBack="1" latitude="22.6205" longitude="120.3142" EXTVoiceNO="04082" />
<Stop Id="4014" routeId="0南" nameZh="光華路口" seqNo="38" pgp="0" terminal="0" districtId="1" GoBack="1" latitude="22.6217" longitude="120.3173" EXTVoiceNO="02712" />
<Stop Id="4015" routeId="0南" nameZh="廣東一街口" seqNo="39" pgp="0" terminal="0" districtId="1" GoBack="1" latitude="22.6225" longitude="120.3195" EXTVoiceNO="04080" />
<Stop Id="4016" routeId="0南" nameZh="長青服務中心" seqNo="40" pgp="0" terminal="0" districtId="1" GoBack="1" latitude="22.6232" longitude="120.3217" EXTVoiceNO="04079" />
<Stop Id="4017" routeId="0南" nameZh="凱旋醫院(民生醫院)" seqNo="41" pgp="0" terminal="0" districtId="1" GoBack="1" latitude="22.624" longitude="120.3246" EXTVoiceNO="04017" />
<Stop Id="4018" routeId="0南" nameZh="四維一路" seqNo="42" pgp="0" terminal="0" districtId="1" GoBack="1" latitude="22.6246" longitude="120.3261" EXTVoiceNO="04077" />
<Stop Id="1313" routeId="0南" nameZh="福安路口" seqNo="43" pgp="0" terminal="0" districtId="1" GoBack="1" latitude="22.628" longitude="120.3273" EXTVoiceNO="01313" />
<Stop Id="1339" routeId="0南" nameZh="捷運五塊厝站" seqNo="44" pgp="0" terminal="0" districtId="1" GoBack="1" latitude="22.63" longitude="120.3277" EXTVoiceNO="00062" />
<Stop Id="1314" routeId="0南" nameZh="建國一路口" seqNo="45" pgp="0" terminal="0" districtId="1" GoBack="1" latitude="22.6323" longitude="120.3282" EXTVoiceNO="01314" />
<Stop Id="0403" routeId="0南" nameZh="福德市場" seqNo="46" pgp="0" terminal="0" districtId="1" GoBack="1" latitude="22.633" longitude="120.3273" EXTVoiceNO="00403" />
<Stop Id="1316" routeId="0南" nameZh="憲政路口" seqNo="47" pgp="0" terminal="0" districtId="1" GoBack="1" latitude="22.6342" longitude="120.3262" EXTVoiceNO="01332" />
<Stop Id="1317" routeId="0南" nameZh="大順陸橋" seqNo="48" pgp="0" terminal="0" districtId="1" GoBack="1" latitude="22.64" longitude="120.3277" EXTVoiceNO="00303" />
<Stop Id="1318" routeId="0南" nameZh="樹德家商" seqNo="49" pgp="0" terminal="0" districtId="1" GoBack="1" latitude="22.6433" longitude="120.3267" EXTVoiceNO="01330" />
<Stop Id="1319" routeId="0南" nameZh="正興國小" seqNo="50" pgp="0" terminal="0" districtId="1" GoBack="1" latitude="22.645" longitude="120.326" EXTVoiceNO="01329" />
<Stop Id="1320" routeId="0南" nameZh="建工路口(高雄高工)" seqNo="51" pgp="0" terminal="0" districtId="1" GoBack="1" latitude="22.6495" longitude="120.3247" EXTVoiceNO="03437" />
<Stop Id="4027" routeId="0南" nameZh="大順二路" seqNo="52" pgp="0" terminal="0" districtId="1" GoBack="1" latitude="22.6508" longitude="120.3229" EXTVoiceNO="04068" />
<Stop Id="4028" routeId="0南" nameZh="鼎山街口" seqNo="53" pgp="0" terminal="0" districtId="1" GoBack="1" latitude="22.6524" longitude="120.3206" EXTVoiceNO="04067" />
<Stop Id="5111" routeId="0南" nameZh="鼎金國中" seqNo="54" pgp="0" terminal="0" districtId="1" GoBack="1" latitude="22.6543" longitude="120.3194" EXTVoiceNO="05111" />
<Stop Id="5110" routeId="0南" nameZh="鼎金國小" seqNo="55" pgp="0" terminal="0" districtId="1" GoBack="1" latitude="22.6576" longitude="120.3216" EXTVoiceNO="05110" />
<Stop Id="5109" routeId="0南" nameZh="鼎西里" seqNo="56" pgp="0" terminal="0" districtId="1" GoBack="1" latitude="22.6608" longitude="120.322" EXTVoiceNO="05109" />
<Stop Id="5178" routeId="0南" nameZh="金山路口" seqNo="57" pgp="0" terminal="0" districtId="1" GoBack="1" latitude="22.6626" longitude="120.3217" EXTVoiceNO="05108" />
<Stop Id="5179" routeId="0南" nameZh="金鼎路口" seqNo="58" pgp="0" terminal="0" districtId="1" GoBack="1" latitude="22.6643" longitude="120.3219" EXTVoiceNO="21095" />
<Stop Id="5000" routeId="0南" nameZh="金獅湖站" seqNo="59" pgp="0" terminal="0" districtId="1" GoBack="1" latitude="22.6662" longitude="120.322" EXTVoiceNO="05001" />
<Stop Id="1100" routeId="100" nameZh="瑞豐站" seqNo="1" pgp="0" terminal="0" districtId="1" GoBack="1" latitude="22.6061" longitude="120.3385" EXTVoiceNO="01100" />
<Stop Id="1202" routeId="100" nameZh="永豐路口" seqNo="2" pgp="0" terminal="0" districtId="1" GoBack="1" latitude="22.6057" longitude="120.3344" EXTVoiceNO="01202" />
<Stop Id="1603" routeId="100" nameZh="崗山市場" seqNo="3" pgp="0" terminal="0" districtId="1" GoBack="1" latitude="22.6073" longitude="120.3335" EXTVoiceNO="17116" />
<Stop Id="1604" routeId="100" nameZh="崗山北街口" seqNo="4" pgp="0" terminal="0" districtId="1" GoBack="1" latitude="22.6099" longitude="120.3332" EXTVoiceNO="17117" />
<Stop Id="1605" routeId="100" nameZh="鐵路機料廠" seqNo="5" pgp="0" terminal="0" districtId="1" GoBack="1" latitude="22.6129" longitude="120.3327" EXTVoiceNO="01605" />
<Stop Id="9002" routeId="100" nameZh="鳳山工業區(監理所後)" seqNo="6" pgp="0" terminal="0" districtId="1" GoBack="1" latitude="22.6143" longitude="120.3325" EXTVoiceNO="09982" />
<Stop Id="0694" routeId="100" nameZh="南京路(衛武營藝術文化中心)" seqNo="7" pgp="0" terminal="0" districtId="1" GoBack="1" latitude="22.6179" longitude="120.3455" EXTVoiceNO="09245" />
<Stop Id="0001" routeId="100" nameZh="建軍站" seqNo="8" pgp="0" terminal="0" districtId="1" GoBack="1" latitude="22.625" longitude="120.3434" EXTVoiceNO="00000" />
<Stop Id="0002" routeId="100" nameZh="國軍高雄總醫院" seqNo="9" pgp="0" terminal="0" districtId="1" GoBack="1" latitude="22.6254" longitude="120.3404" EXTVoiceNO="20980" />
<Stop Id="0003" routeId="100" nameZh="中正高中" seqNo="10" pgp="0" terminal="0" districtId="1" GoBack="1" latitude="22.6262" longitude="120.3382" EXTVoiceNO="00003" />
<Stop Id="0004" routeId="100" nameZh="中正技擊館" seqNo="11" pgp="0" terminal="0" districtId="1" GoBack="1" latitude="22.6279" longitude="120.3329" EXTVoiceNO="00004" />
<Stop Id="0062" routeId="100" nameZh="捷運五塊厝站" seqNo="12" pgp="0" terminal="0" districtId="1" GoBack="1" latitude="22.6293" longitude="120.3289" EXTVoiceNO="00062" />
<Stop Id="0007" routeId="100" nameZh="大順三路口" seqNo="13" pgp="0" terminal="0" districtId="1" GoBack="1" latitude="22.63" longitude="120.3242" EXTVoiceNO="00007" />
<Stop Id="0008" routeId="100" nameZh="五福一路" seqNo="14" pgp="0" terminal="0" districtId="1" GoBack="1" latitude="22.6298" longitude="120.3207" EXTVoiceNO="00008" />
<Stop Id="0135" routeId="100" nameZh="高雄文化中心" seqNo="15" pgp="0" terminal="0" districtId="1" GoBack="1" latitude="22.6276" longitude="120.3189" EXTVoiceNO="00009" />
<Stop Id="1455" routeId="100" nameZh="師範大學(和平校區)" seqNo="16" pgp="0" terminal="0" districtId="1" GoBack="1" latitude="22.6254" longitude="120.3197" EXTVoiceNO="26135" />
<Stop Id="1456" routeId="100" nameZh="長青服務中心" seqNo="17" pgp="0" terminal="0" districtId="1" GoBack="1" latitude="22.6223" longitude="120.3209" EXTVoiceNO="04079" />
<Stop Id="1457" routeId="100" nameZh="五權街口" seqNo="18" pgp="0" terminal="0" districtId="1" GoBack="1" latitude="22.6202" longitude="120.3217" EXTVoiceNO="01412" />
<Stop Id="1013" routeId="100" nameZh="和平路口" seqNo="19" pgp="0" terminal="0" districtId="1" GoBack="1" latitude="22.6195" longitude="120.3215" EXTVoiceNO="01051" />
<Stop Id="1014" routeId="100" nameZh="林德官(三和市場)" seqNo="20" pgp="0" terminal="0" districtId="1" GoBack="1" latitude="22.619" longitude="120.3199" EXTVoiceNO="01050" />
<Stop Id="1615" routeId="100" nameZh="光華路口(光華夜市)" seqNo="21" pgp="0" terminal="0" districtId="1" GoBack="1" latitude="22.6183" longitude="120.3173" EXTVoiceNO="01049" />
<Stop Id="1616" routeId="100" nameZh="三多市場" seqNo="22" pgp="0" terminal="0" districtId="1" GoBack="1" latitude="22.6171" longitude="120.3138" EXTVoiceNO="01648" />
<Stop Id="1617" routeId="100" nameZh="復興路口" seqNo="23" pgp="0" terminal="0" districtId="1" GoBack="1" latitude="22.6166" longitude="120.3124" EXTVoiceNO="02155" />
<Stop Id="1618" routeId="100" nameZh="仁愛三街口" seqNo="24" pgp="0" terminal="0" districtId="1" GoBack="1" latitude="22.616" longitude="120.3107" EXTVoiceNO="01646" />
<Stop Id="1619" routeId="100" nameZh="三多三路" seqNo="25" pgp="0" terminal="0" districtId="1" GoBack="1" latitude="22.6154" longitude="120.3088" EXTVoiceNO="01645" />
<Stop Id="1515" routeId="100" nameZh="新光三越(SOGO百貨)" seqNo="26" pgp="0" terminal="0" districtId="1" GoBack="1" latitude="22.6145" longitude="120.3062" EXTVoiceNO="01515" />
<Stop Id="1516" routeId="100" nameZh="大遠百百貨(捷運三多商圈站)" seqNo="27" pgp="0" terminal="0" districtId="1" GoBack="1" latitude="22.6137" longitude="120.3037" EXTVoiceNO="01516" />
<Stop Id="1662" routeId="100" nameZh="自強三路口" seqNo="28" pgp="0" terminal="0" districtId="1" GoBack="1" latitude="22.6128" longitude="120.3009" EXTVoiceNO="04087" />
<Stop Id="1517" routeId="100" nameZh="八五大樓" seqNo="29" pgp="0" terminal="0" districtId="1" GoBack="1" latitude="22.6124" longitude="120.2996" EXTVoiceNO="01517" />
<Stop Id="1623" routeId="100" nameZh="成功國小" seqNo="30" pgp="0" terminal="0" districtId="1" GoBack="1" latitude="22.6139" longitude="120.2978" EXTVoiceNO="01623" />
<Stop Id="1624" routeId="100" nameZh="苓雅市場" seqNo="31" pgp="0" terminal="0" districtId="1" GoBack="1" latitude="22.617" longitude="120.2968" EXTVoiceNO="01624" />
<Stop Id="1027" routeId="100" nameZh="漢神百貨" seqNo="32" pgp="0" terminal="0" districtId="1" GoBack="1" latitude="22.6193" longitude="120.2958" EXTVoiceNO="01027" />
<Stop Id="0036" routeId="100" nameZh="大立百貨" seqNo="33" pgp="0" terminal="0" districtId="1" GoBack="1" latitude="22.6214" longitude="120.296" EXTVoiceNO="00036" />
<Stop Id="9935" routeId="100" nameZh="大立百貨(文武二街口)" seqNo="34" pgp="0" terminal="0" districtId="1" GoBack="1" latitude="22.6219" longitude="120.2975" EXTVoiceNO="09935" />
<Stop Id="0037" routeId="100" nameZh="城市光廊" seqNo="35" pgp="0" terminal="0" districtId="1" GoBack="1" latitude="22.6226" longitude="120.2999" EXTVoiceNO="00037" />
<Stop Id="0119" routeId="100" nameZh="捷運中央公園站" seqNo="36" pgp="0" terminal="0" districtId="1" GoBack="1" latitude="22.6248" longitude="120.3013" EXTVoiceNO="00119" />
<Stop Id="0120" routeId="100" nameZh="捷運美麗島站" seqNo="37" pgp="0" terminal="0" districtId="1" GoBack="1" latitude="22.6301" longitude="120.3019" EXTVoiceNO="00120" />
<Stop Id="0121" routeId="100" nameZh="六合夜市" seqNo="38" pgp="0" terminal="0" districtId="1" GoBack="1" latitude="22.6332" longitude="120.3021" EXTVoiceNO="00121" />
<Stop Id="1445" routeId="100" nameZh="中山一路口" seqNo="39" pgp="0" terminal="0" districtId="1" GoBack="1" latitude="22.6344" longitude="120.3036" EXTVoiceNO="01445" />
<Stop Id="0411" routeId="100" nameZh="林森路口" seqNo="40" pgp="0" terminal="0" districtId="1" GoBack="1" latitude="22.6377" longitude="120.3043" EXTVoiceNO="00411" />
<Stop Id="0241" routeId="100" nameZh="高雄火車站(捷運高雄車站)" seqNo="41" pgp="0" terminal="0" districtId="1" GoBack="1" latitude="22.6377" longitude="120.301" EXTVoiceNO="00412" />
<Stop Id="6001" routeId="100" nameZh="高雄火車站(捷運高雄車站)" seqNo="1" pgp="0" terminal="0" districtId="1" GoBack="2" latitude="22.6379" longitude="120.3019" EXTVoiceNO="00412" />
<Stop Id="0125" routeId="100" nameZh="六合夜市" seqNo="2" pgp="0" terminal="0" districtId="1" GoBack="2" latitude="22.6342" longitude="120.3021" EXTVoiceNO="00121" />
<Stop Id="0126" routeId="100" nameZh="捷運美麗島站" seqNo="3" pgp="0" terminal="0" districtId="1" GoBack="2" latitude="22.6304" longitude="120.3016" EXTVoiceNO="00120" />
<Stop Id="0127" routeId="100" nameZh="捷運中央公園站" seqNo="4" pgp="0" terminal="0" districtId="1" GoBack="2" latitude="22.6247" longitude="120.301" EXTVoiceNO="00119" />
<Stop Id="0016" routeId="100" nameZh="城市光廊" seqNo="5" pgp="0" terminal="0" districtId="1" GoBack="2" latitude="22.623" longitude="120.3004" EXTVoiceNO="00037" />
<Stop Id="9936" routeId="100" nameZh="大立百貨(文武二街口)" seqNo="6" pgp="0" terminal="0" districtId="1" GoBack="2" latitude="22.622" longitude="120.2973" EXTVoiceNO="09935" />
<Stop Id="1037" routeId="100" nameZh="漢神百貨" seqNo="7" pgp="0" terminal="0" districtId="1" GoBack="2" latitude="22.6192" longitude="120.2956" EXTVoiceNO="01027" />
<Stop Id="1640" routeId="100" nameZh="苓雅市場" seqNo="8" pgp="0" terminal="0" districtId="1" GoBack="2" latitude="22.6168" longitude="120.2967" EXTVoiceNO="01624" />
<Stop Id="1641" routeId="100" nameZh="成功國小" seqNo="9" pgp="0" terminal="0" districtId="1" GoBack="2" latitude="22.6139" longitude="120.2976" EXTVoiceNO="01623" />
<Stop Id="1544" routeId="100" nameZh="八五大樓" seqNo="10" pgp="0" terminal="0" districtId="1" GoBack="2" latitude="22.6124" longitude="120.3" EXTVoiceNO="01517" />
<Stop Id="1663" routeId="100" nameZh="自強三路口" seqNo="11" pgp="0" terminal="0" districtId="1" GoBack="2" latitude="22.6127" longitude="120.3009" EXTVoiceNO="04087" />
<Stop Id="1545" routeId="100" nameZh="大遠百百貨(捷運三多商圈站)" seqNo="12" pgp="0" terminal="0" districtId="1" GoBack="2" latitude="22.6135" longitude="120.3033" EXTVoiceNO="01516" />
<Stop Id="1546" routeId="100" nameZh="新光三越(SOGO百貨)" seqNo="13" pgp="0" terminal="0" districtId="1" GoBack="2" latitude="22.6145" longitude="120.3062" EXTVoiceNO="01515" />
<Stop Id="1645" routeId="100" nameZh="三多三路" seqNo="14" pgp="0" terminal="0" districtId="1" GoBack="2" latitude="22.6154" longitude="120.309" EXTVoiceNO="01645" />
<Stop Id="1646" routeId="100" nameZh="仁愛三街口" seqNo="15" pgp="0" terminal="0" districtId="1" GoBack="2" latitude="22.6159" longitude="120.3107" EXTVoiceNO="01646" />
<Stop Id="1647" routeId="100" nameZh="復興路口" seqNo="16" pgp="0" terminal="0" districtId="1" GoBack="2" latitude="22.6164" longitude="120.3124" EXTVoiceNO="02155" />
<Stop Id="1648" routeId="100" nameZh="三多市場" seqNo="17" pgp="0" terminal="0" districtId="1" GoBack="2" latitude="22.6174" longitude="120.3149" EXTVoiceNO="01648" />
<Stop Id="1049" routeId="100" nameZh="光華路口(光華夜市)" seqNo="18" pgp="0" terminal="0" districtId="1" GoBack="2" latitude="22.6184" longitude="120.3182" EXTVoiceNO="01049" />
<Stop Id="1050" routeId="100" nameZh="林德官(三和市場)" seqNo="19" pgp="0" terminal="0" districtId="1" GoBack="2" latitude="22.6189" longitude="120.3201" EXTVoiceNO="01050" />
<Stop Id="1051" routeId="100" nameZh="和平路口" seqNo="20" pgp="0" terminal="0" districtId="1" GoBack="2" latitude="22.6194" longitude="120.3215" EXTVoiceNO="01051" />
<Stop Id="1412" routeId="100" nameZh="五權街口" seqNo="21" pgp="0" terminal="0" districtId="1" GoBack="2" latitude="22.6202" longitude="120.3219" EXTVoiceNO="01412" />
<Stop Id="1413" routeId="100" nameZh="長青服務中心" seqNo="22" pgp="0" terminal="0" districtId="1" GoBack="2" latitude="22.6223" longitude="120.3211" EXTVoiceNO="04079" />
<Stop Id="1414" routeId="100" nameZh="師範大學(和平校區)" seqNo="23" pgp="0" terminal="0" districtId="1" GoBack="2" latitude="22.6252" longitude="120.3199" EXTVoiceNO="26135" />
<Stop Id="0111" routeId="100" nameZh="高雄文化中心" seqNo="24" pgp="0" terminal="0" districtId="1" GoBack="2" latitude="22.6273" longitude="120.3191" EXTVoiceNO="00009" />
<Stop Id="0045" routeId="100" nameZh="五福一路" seqNo="25" pgp="0" terminal="0" districtId="1" GoBack="2" latitude="22.6294" longitude="120.3204" EXTVoiceNO="00008" />
<Stop Id="0046" routeId="100" nameZh="大順三路口" seqNo="26" pgp="0" terminal="0" districtId="1" GoBack="2" latitude="22.6297" longitude="120.3237" EXTVoiceNO="00007" />
<Stop Id="0066" routeId="100" nameZh="捷運五塊厝站" seqNo="27" pgp="0" terminal="0" districtId="1" GoBack="2" latitude="22.6293" longitude="120.3282" EXTVoiceNO="00062" />
<Stop Id="0049" routeId="100" nameZh="中正技擊館" seqNo="28" pgp="0" terminal="0" districtId="1" GoBack="2" latitude="22.6273" longitude="120.3339" EXTVoiceNO="00004" />
<Stop Id="9003" routeId="100" nameZh="鳳山工業區(監理所後)" seqNo="29" pgp="0" terminal="0" districtId="1" GoBack="2" latitude="22.6147" longitude="120.3324" EXTVoiceNO="09982" />
<Stop Id="1659" routeId="100" nameZh="鐵路機料廠" seqNo="30" pgp="0" terminal="0" districtId="1" GoBack="2" latitude="22.6127" longitude="120.3326" EXTVoiceNO="01605" />
<Stop Id="1660" routeId="100" nameZh="崗山北街口" seqNo="31" pgp="0" terminal="0" districtId="1" GoBack="2" latitude="22.6098" longitude="120.333" EXTVoiceNO="17117" />
<Stop Id="1661" routeId="100" nameZh="崗山市場" seqNo="32" pgp="0" terminal="0" districtId="1" GoBack="2" latitude="22.6073" longitude="120.3334" EXTVoiceNO="17116" />
<Stop Id="1246" routeId="100" nameZh="永豐路口" seqNo="33" pgp="0" terminal="0" districtId="1" GoBack="2" latitude="22.6056" longitude="120.3344" EXTVoiceNO="01202" />
<Stop Id="1199" routeId="100" nameZh="瑞豐站" seqNo="34" pgp="0" terminal="0" districtId="1" GoBack="2" latitude="22.6058" longitude="120.3378" EXTVoiceNO="01100" />
<Stop Id="1001" routeId="11" nameZh="瑞豐站" seqNo="1" pgp="0" terminal="0" districtId="1" GoBack="1" latitude="22.6069" longitude="120.338" EXTVoiceNO="01100" />
<Stop Id="1002" routeId="11" nameZh="北極殿" seqNo="2" pgp="0" terminal="0" districtId="1" GoBack="1" latitude="22.6109" longitude="120.3374" EXTVoiceNO="01002" />
<Stop Id="1003" routeId="11" nameZh="紫竹林精舍" seqNo="3" pgp="0" terminal="0" districtId="1" GoBack="1" latitude="22.6123" longitude="120.3372" EXTVoiceNO="01003" />
<Stop Id="9847" routeId="11" nameZh="新甲國小" seqNo="4" pgp="0" terminal="0" districtId="1" GoBack="1" latitude="22.6128" longitude="120.3408" EXTVoiceNO="09244" />
<Stop Id="1029" routeId="11" nameZh="鳳新高中" seqNo="5" pgp="0" terminal="0" districtId="1" GoBack="1" latitude="22.6129" longitude="120.3433" EXTVoiceNO="01028" />
<Stop Id="9137" routeId="11" nameZh="鳳新高中(南京路)" seqNo="6" pgp="0" terminal="0" districtId="1" GoBack="1" latitude="22.6133" longitude="120.3457" EXTVoiceNO="09131" />
<Stop Id="0694" routeId="11" nameZh="南京路(衛武營藝術文化中心)" seqNo="7" pgp="0" terminal="0" districtId="1" GoBack="1" latitude="22.6179" longitude="120.3455" EXTVoiceNO="09245" />
<Stop Id="0001" routeId="11" nameZh="建軍站" seqNo="8" pgp="0" terminal="0" districtId="1" GoBack="1" latitude="22.625" longitude="120.3434" EXTVoiceNO="00000" />
<Stop Id="0002" routeId="11" nameZh="國軍高雄總醫院" seqNo="9" pgp="0" terminal="0" districtId="1" GoBack="1" latitude="22.6254" longitude="120.3404" EXTVoiceNO="20980" />
<Stop Id="0003" routeId="11" nameZh="中正高中" seqNo="10" pgp="0" terminal="0" districtId="1" GoBack="1" latitude="22.6262" longitude="120.3382" EXTVoiceNO="00003" />
<Stop Id="0004" routeId="11" nameZh="中正技擊館" seqNo="11" pgp="0" terminal="0" districtId="1" GoBack="1" latitude="22.6279" longitude="120.3329" EXTVoiceNO="00004" />
<Stop Id="0062" routeId="11" nameZh="捷運五塊厝站" seqNo="12" pgp="0" terminal="0" districtId="1" GoBack="1" latitude="22.6293" longitude="120.3289" EXTVoiceNO="00062" />
<Stop Id="0007" routeId="11" nameZh="大順三路口" seqNo="13" pgp="0" terminal="0" districtId="1" GoBack="1" latitude="22.63" longitude="120.3242" EXTVoiceNO="00007" />
<Stop Id="0008" routeId="11" nameZh="五福一路" seqNo="14" pgp="0" terminal="0" districtId="1" GoBack="1" latitude="22.6298" longitude="120.3207" EXTVoiceNO="00008" />
<Stop Id="0135" routeId="11" nameZh="高雄文化中心" seqNo="15" pgp="0" terminal="0" districtId="1" GoBack="1" latitude="22.6276" longitude="120.3189" EXTVoiceNO="00009" />
<Stop Id="1455" routeId="11" nameZh="師範大學(和平校區)" seqNo="16" pgp="0" terminal="0" districtId="1" GoBack="1" latitude="22.6254" longitude="120.3197" EXTVoiceNO="26135" />
<Stop Id="1456" routeId="11" nameZh="長青服務中心" seqNo="17" pgp="0" terminal="0" districtId="1" GoBack="1" latitude="22.6223" longitude="120.3209" EXTVoiceNO="04079" />
<Stop Id="1457" routeId="11" nameZh="五權街口" seqNo="18" pgp="0" terminal="0" districtId="1" GoBack="1" latitude="22.6202" longitude="120.3217" EXTVoiceNO="01412" />
<Stop Id="1013" routeId="11" nameZh="和平路口" seqNo="19" pgp="0" terminal="0" districtId="1" GoBack="1" latitude="22.6195" longitude="120.3215" EXTVoiceNO="01051" />
<Stop Id="1014" routeId="11" nameZh="林德官(三和市場)" seqNo="20" pgp="0" terminal="0" districtId="1" GoBack="1" latitude="22.619" longitude="120.3199" EXTVoiceNO="01050" />
<Stop Id="1016" routeId="11" nameZh="三多二路口" seqNo="21" pgp="0" terminal="0" districtId="1" GoBack="1" latitude="22.6189" longitude="120.3175" EXTVoiceNO="01016" />
<Stop Id="1017" routeId="11" nameZh="四維路口" seqNo="22" pgp="0" terminal="0" districtId="1" GoBack="1" latitude="22.6208" longitude="120.3168" EXTVoiceNO="01017" />
<Stop Id="1018" routeId="11" nameZh="苓雅一路口" seqNo="23" pgp="0" terminal="0" districtId="1" GoBack="1" latitude="22.6226" longitude="120.3161" EXTVoiceNO="01018" />
<Stop Id="1019" routeId="11" nameZh="青年路口" seqNo="24" pgp="0" terminal="0" districtId="1" GoBack="1" latitude="22.6238" longitude="120.3157" EXTVoiceNO="01019" />
<Stop Id="1020" routeId="11" nameZh="四維國小" seqNo="25" pgp="0" terminal="0" districtId="1" GoBack="1" latitude="22.6238" longitude="120.3134" EXTVoiceNO="01122" />
<Stop Id="1021" routeId="11" nameZh="民權路口" seqNo="26" pgp="0" terminal="0" districtId="1" GoBack="1" latitude="22.6231" longitude="120.3113" EXTVoiceNO="00012" />
<Stop Id="1022" routeId="11" nameZh="國民市場" seqNo="27" pgp="0" terminal="0" districtId="1" GoBack="1" latitude="22.6222" longitude="120.3085" EXTVoiceNO="01022" />
<Stop Id="1023" routeId="11" nameZh="青年一路" seqNo="28" pgp="0" terminal="0" districtId="1" GoBack="1" latitude="22.6215" longitude="120.3067" EXTVoiceNO="01023" />
<Stop Id="1024" routeId="11" nameZh="仁智街口" seqNo="29" pgp="0" terminal="0" districtId="1" GoBack="1" latitude="22.6204" longitude="120.3031" EXTVoiceNO="01024" />
<Stop Id="1025" routeId="11" nameZh="仁德街口" seqNo="30" pgp="0" terminal="0" districtId="1" GoBack="1" latitude="22.6196" longitude="120.3009" EXTVoiceNO="01025" />
<Stop Id="1026" routeId="11" nameZh="青年二路" seqNo="31" pgp="0" terminal="0" districtId="1" GoBack="1" latitude="22.6187" longitude="120.2983" EXTVoiceNO="01026" />
<Stop Id="1027" routeId="11" nameZh="漢神百貨" seqNo="32" pgp="0" terminal="0" districtId="1" GoBack="1" latitude="22.6191" longitude="120.2959" EXTVoiceNO="01027" />
<Stop Id="0018" routeId="11" nameZh="高雄女中" seqNo="33" pgp="0" terminal="0" districtId="1" GoBack="1" latitude="22.6208" longitude="120.2922" EXTVoiceNO="00018" />
<Stop Id="0019" routeId="11" nameZh="大成街口(真愛碼頭)" seqNo="34" pgp="0" terminal="0" districtId="1" GoBack="1" latitude="22.6212" longitude="120.2885" EXTVoiceNO="00019" />
<Stop Id="0020" routeId="11" nameZh="大智路口" seqNo="35" pgp="0" terminal="0" districtId="1" GoBack="1" latitude="22.6217" longitude="120.2874" EXTVoiceNO="00020" />
<Stop Id="0424" routeId="11" nameZh="大智路" seqNo="36" pgp="0" terminal="0" districtId="1" GoBack="1" latitude="22.6237" longitude="120.2867" EXTVoiceNO="00424" />
<Stop Id="4002" routeId="11" nameZh="捷運鹽埕埔站(大仁路)" seqNo="37" pgp="0" terminal="0" districtId="1" GoBack="1" latitude="22.6252" longitude="120.2854" EXTVoiceNO="04000" />
<Stop Id="4000" routeId="11" nameZh="捷運鹽埕埔站(大仁路)" seqNo="1" pgp="0" terminal="0" districtId="1" GoBack="2" latitude="22.6252" longitude="120.2852" EXTVoiceNO="04000" />
<Stop Id="1140" routeId="11" nameZh="三山國王廟" seqNo="2" pgp="0" terminal="0" districtId="1" GoBack="2" latitude="22.6257" longitude="120.2843" EXTVoiceNO="01140" />
<Stop Id="0532" routeId="11" nameZh="國際商場" seqNo="3" pgp="0" terminal="0" districtId="1" GoBack="2" latitude="22.6253" longitude="120.2816" EXTVoiceNO="00542" />
<Stop Id="0032" routeId="11" nameZh="大勇路口" seqNo="4" pgp="0" terminal="0" districtId="1" GoBack="2" latitude="22.624" longitude="120.2827" EXTVoiceNO="00021" />
<Stop Id="0423" routeId="11" nameZh="捷運鹽埕埔站(五福四路)" seqNo="5" pgp="0" terminal="0" districtId="1" GoBack="2" latitude="22.6232" longitude="120.2843" EXTVoiceNO="00423" />
<Stop Id="0033" routeId="11" nameZh="大智路口" seqNo="6" pgp="0" terminal="0" districtId="1" GoBack="2" latitude="22.6219" longitude="120.2869" EXTVoiceNO="00020" />
<Stop Id="0034" routeId="11" nameZh="大成街口(真愛碼頭)" seqNo="7" pgp="0" terminal="0" districtId="1" GoBack="2" latitude="22.6211" longitude="120.2885" EXTVoiceNO="00019" />
<Stop Id="0035" routeId="11" nameZh="高雄女中" seqNo="8" pgp="0" terminal="0" districtId="1" GoBack="2" latitude="22.6206" longitude="120.2921" EXTVoiceNO="00018" />
<Stop Id="1037" routeId="11" nameZh="漢神百貨" seqNo="9" pgp="0" terminal="0" districtId="1" GoBack="2" latitude="22.6192" longitude="120.2957" EXTVoiceNO="01027" />
<Stop Id="1038" routeId="11" nameZh="青年二路" seqNo="10" pgp="0" terminal="0" districtId="1" GoBack="2" latitude="22.6188" longitude="120.2983" EXTVoiceNO="01026" />
<Stop Id="1039" routeId="11" nameZh="仁德街口" seqNo="11" pgp="0" terminal="0" districtId="1" GoBack="2" latitude="22.6195" longitude="120.3009" EXTVoiceNO="01025" />
<Stop Id="1040" routeId="11" nameZh="仁智街口" seqNo="12" pgp="0" terminal="0" districtId="1" GoBack="2" latitude="22.6202" longitude="120.3032" EXTVoiceNO="01024" />
<Stop Id="1041" routeId="11" nameZh="青年一路" seqNo="13" pgp="0" terminal="0" districtId="1" GoBack="2" latitude="22.6214" longitude="120.3065" EXTVoiceNO="01023" />
<Stop Id="1042" routeId="11" nameZh="國民市場" seqNo="14" pgp="0" terminal="0" districtId="1" GoBack="2" latitude="22.6221" longitude="120.3088" EXTVoiceNO="01022" />
<Stop Id="1043" routeId="11" nameZh="民權路口" seqNo="15" pgp="0" terminal="0" districtId="1" GoBack="2" latitude="22.6229" longitude="120.3111" EXTVoiceNO="00012" />
<Stop Id="1044" routeId="11" nameZh="四維國小" seqNo="16" pgp="0" terminal="0" districtId="1" GoBack="2" latitude="22.6237" longitude="120.3136" EXTVoiceNO="01122" />
<Stop Id="1046" routeId="11" nameZh="苓雅一路口" seqNo="17" pgp="0" terminal="0" districtId="1" GoBack="2" latitude="22.6226" longitude="120.3162" EXTVoiceNO="01018" />
<Stop Id="1047" routeId="11" nameZh="四維路口" seqNo="18" pgp="0" terminal="0" districtId="1" GoBack="2" latitude="22.6205" longitude="120.3167" EXTVoiceNO="01017" />
<Stop Id="1049" routeId="11" nameZh="光華路口(光華夜市)" seqNo="19" pgp="0" terminal="0" districtId="1" GoBack="2" latitude="22.6184" longitude="120.3182" EXTVoiceNO="01049" />
<Stop Id="1050" routeId="11" nameZh="林德官(三和市場)" seqNo="20" pgp="0" terminal="0" districtId="1" GoBack="2" latitude="22.6189" longitude="120.3201" EXTVoiceNO="01050" />
<Stop Id="1051" routeId="11" nameZh="和平路口" seqNo="21" pgp="0" terminal="0" districtId="1" GoBack="2" latitude="22.6194" longitude="120.3215" EXTVoiceNO="01051" />
<Stop Id="1412" routeId="11" nameZh="五權街口" seqNo="22" pgp="0" terminal="0" districtId="1" GoBack="2" latitude="22.6202" longitude="120.3219" EXTVoiceNO="01412" />
<Stop Id="1413" routeId="11" nameZh="長青服務中心" seqNo="23" pgp="0" terminal="0" districtId="1" GoBack="2" latitude="22.6223" longitude="120.3211" EXTVoiceNO="04079" />
<Stop Id="1414" routeId="11" nameZh="師範大學(和平校區)" seqNo="24" pgp="0" terminal="0" districtId="1" GoBack="2" latitude="22.6252" longitude="120.3199" EXTVoiceNO="26135" />
<Stop Id="0111" routeId="11" nameZh="高雄文化中心" seqNo="25" pgp="0" terminal="0" districtId="1" GoBack="2" latitude="22.6273" longitude="120.3191" EXTVoiceNO="00009" />
<Stop Id="0045" routeId="11" nameZh="五福一路" seqNo="26" pgp="0" terminal="0" districtId="1" GoBack="2" latitude="22.6294" longitude="120.3204" EXTVoiceNO="00008" />
<Stop Id="0046" routeId="11" nameZh="大順三路口" seqNo="27" pgp="0" terminal="0" districtId="1" GoBack="2" latitude="22.6297" longitude="120.3237" EXTVoiceNO="00007" />
<Stop Id="0066" routeId="11" nameZh="捷運五塊厝站" seqNo="28" pgp="0" terminal="0" districtId="1" GoBack="2" latitude="22.6293" longitude="120.3282" EXTVoiceNO="00062" />
<Stop Id="0049" routeId="11" nameZh="中正技擊館" seqNo="29" pgp="0" terminal="0" districtId="1" GoBack="2" latitude="22.6273" longitude="120.3339" EXTVoiceNO="00004" />
<Stop Id="1057" routeId="11" nameZh="三多一路口" seqNo="30" pgp="0" terminal="0" districtId="1" GoBack="2" latitude="22.6229" longitude="120.3357" EXTVoiceNO="01007" />
<Stop Id="1058" routeId="11" nameZh="武營路" seqNo="31" pgp="0" terminal="0" districtId="1" GoBack="2" latitude="22.6205" longitude="120.3361" EXTVoiceNO="01006" />
<Stop Id="1059" routeId="11" nameZh="武昌路口" seqNo="32" pgp="0" terminal="0" districtId="1" GoBack="2" latitude="22.6181" longitude="120.3364" EXTVoiceNO="01005" />
<Stop Id="9513" routeId="11" nameZh="新強路口" seqNo="33" pgp="0" terminal="0" districtId="1" GoBack="2" latitude="22.6166" longitude="120.3392" EXTVoiceNO="08981" />
<Stop Id="9849" routeId="11" nameZh="新康街口" seqNo="34" pgp="0" terminal="0" districtId="1" GoBack="2" latitude="22.6172" longitude="120.3439" EXTVoiceNO="09245" />
<Stop Id="9138" routeId="11" nameZh="鳳新高中(南京路)" seqNo="35" pgp="0" terminal="0" districtId="1" GoBack="2" latitude="22.6137" longitude="120.3454" EXTVoiceNO="09131" />
<Stop Id="1028" routeId="11" nameZh="鳳新高中" seqNo="36" pgp="0" terminal="0" districtId="1" GoBack="2" latitude="22.613" longitude="120.3433" EXTVoiceNO="01028" />
<Stop Id="9850" routeId="11" nameZh="新甲國小" seqNo="37" pgp="0" terminal="0" districtId="1" GoBack="2" latitude="22.6129" longitude="120.3407" EXTVoiceNO="09244" />
<Stop Id="1061" routeId="11" nameZh="紫竹林精舍" seqNo="38" pgp="0" terminal="0" districtId="1" GoBack="2" latitude="22.612" longitude="120.3372" EXTVoiceNO="01003" />
<Stop Id="1062" routeId="11" nameZh="北極殿" seqNo="39" pgp="0" terminal="0" districtId="1" GoBack="2" latitude="22.6107" longitude="120.3374" EXTVoiceNO="01002" />
<Stop Id="0100" routeId="11" nameZh="瑞豐站" seqNo="40" pgp="0" terminal="0" districtId="1" GoBack="2" latitude="22.6067" longitude="120.338" EXTVoiceNO="01100" />
<Stop Id="2001" routeId="15" nameZh="小港站" seqNo="1" pgp="0" terminal="0" districtId="1" GoBack="1" latitude="22.5651" longitude="120.3399" EXTVoiceNO="02001" />
<Stop Id="2021" routeId="15" nameZh="小港行政中心" seqNo="2" pgp="0" terminal="0" districtId="1" GoBack="1" latitude="22.5652" longitude="120.3383" EXTVoiceNO="02021" />
<Stop Id="2022" routeId="15" nameZh="民眾服務站" seqNo="3" pgp="0" terminal="0" districtId="1" GoBack="1" latitude="22.5644" longitude="120.3364" EXTVoiceNO="02022" />
<Stop Id="2023" routeId="15" nameZh="小港路口" seqNo="4" pgp="0" terminal="0" districtId="1" GoBack="1" latitude="22.5638" longitude="120.3344" EXTVoiceNO="02023" />
<Stop Id="2024" routeId="15" nameZh="小港天主教堂" seqNo="5" pgp="0" terminal="0" districtId="1" GoBack="1" latitude="22.5654" longitude="120.3335" EXTVoiceNO="02024" />
<Stop Id="2025" routeId="15" nameZh="港後路口" seqNo="6" pgp="0" terminal="0" districtId="1" GoBack="1" latitude="22.5671" longitude="120.3322" EXTVoiceNO="02025" />
<Stop Id="2026" routeId="15" nameZh="平和路" seqNo="7" pgp="0" terminal="0" districtId="1" GoBack="1" latitude="22.5686" longitude="120.3309" EXTVoiceNO="02026" />
<Stop Id="2027" routeId="15" nameZh="金福路口" seqNo="8" pgp="0" terminal="0" districtId="1" GoBack="1" latitude="22.5701" longitude="120.3297" EXTVoiceNO="02027" />
<Stop Id="2028" routeId="15" nameZh="佛公" seqNo="9" pgp="0" terminal="0" districtId="1" GoBack="1" latitude="22.5753" longitude="120.3254" EXTVoiceNO="26176" />
<Stop Id="2031" routeId="15" nameZh="草衙" seqNo="10" pgp="0" terminal="0" districtId="1" GoBack="1" latitude="22.5771" longitude="120.3238" EXTVoiceNO="02031" />
<Stop Id="2032" routeId="15" nameZh="草衙市場" seqNo="11" pgp="0" terminal="0" districtId="1" GoBack="1" latitude="22.5785" longitude="120.3224" EXTVoiceNO="02032" />
<Stop Id="2033" routeId="15" nameZh="北草衙" seqNo="12" pgp="0" terminal="0" districtId="1" GoBack="1" latitude="22.5811" longitude="120.323" EXTVoiceNO="02033" />
<Stop Id="2114" routeId="15" nameZh="德昌路" seqNo="13" pgp="0" terminal="0" districtId="1" GoBack="1" latitude="22.5812" longitude="120.3189" EXTVoiceNO="02114" />
<Stop Id="2116" routeId="15" nameZh="同安路" seqNo="14" pgp="0" terminal="0" districtId="1" GoBack="1" latitude="22.5837" longitude="120.3179" EXTVoiceNO="02116" />
<Stop Id="2036" routeId="15" nameZh="鎮中路口" seqNo="15" pgp="0" terminal="0" districtId="1" GoBack="1" latitude="22.5856" longitude="120.3199" EXTVoiceNO="02036" />
<Stop Id="2037" routeId="15" nameZh="前鎮高中站" seqNo="16" pgp="0" terminal="0" districtId="1" GoBack="1" latitude="22.587" longitude="120.3202" EXTVoiceNO="02037" />
<Stop Id="2217" routeId="15" nameZh="樹人路" seqNo="17" pgp="0" terminal="0" districtId="1" GoBack="1" latitude="22.5897" longitude="120.3189" EXTVoiceNO="02217" />
<Stop Id="2218" routeId="15" nameZh="鎮海路" seqNo="18" pgp="0" terminal="0" districtId="1" GoBack="1" latitude="22.5915" longitude="120.3169" EXTVoiceNO="02218" />
<Stop Id="9048" routeId="15" nameZh="康定社區" seqNo="19" pgp="0" terminal="0" districtId="1" GoBack="1" latitude="22.5904" longitude="120.3155" EXTVoiceNO="08960" />
<Stop Id="2204" routeId="15" nameZh="康定路口" seqNo="20" pgp="0" terminal="0" districtId="1" GoBack="1" latitude="22.5893" longitude="120.3146" EXTVoiceNO="02204" />
<Stop Id="2205" routeId="15" nameZh="鎮州路口" seqNo="21" pgp="0" terminal="0" districtId="1" GoBack="1" latitude="22.5917" longitude="120.3124" EXTVoiceNO="02205" />
<Stop Id="3403" routeId="15" nameZh="鎮東二街口" seqNo="22" pgp="0" terminal="0" districtId="1" GoBack="1" latitude="22.5915" longitude="120.3113" EXTVoiceNO="03459" />
<Stop Id="3402" routeId="15" nameZh="鎮州路" seqNo="23" pgp="0" terminal="0" districtId="1" GoBack="1" latitude="22.5893" longitude="120.3095" EXTVoiceNO="03460" />
<Stop Id="3401" routeId="15" nameZh="南聖街口" seqNo="24" pgp="0" terminal="0" districtId="1" GoBack="1" latitude="22.5883" longitude="120.308" EXTVoiceNO="03401" />
<Stop Id="9049" routeId="15" nameZh="前鎮輪渡站" seqNo="25" pgp="0" terminal="0" districtId="1" GoBack="1" latitude="22.5879" longitude="120.3063" EXTVoiceNO="02123" />
<Stop Id="3001" routeId="15" nameZh="前鎮站" seqNo="26" pgp="0" terminal="0" districtId="1" GoBack="1" latitude="22.5913" longitude="120.3057" EXTVoiceNO="03001" />
<Stop Id="9050" routeId="15" nameZh="前鎮輪渡站" seqNo="1" pgp="0" terminal="0" districtId="1" GoBack="2" latitude="22.5881" longitude="120.306" EXTVoiceNO="02123" />
<Stop Id="3400" routeId="15" nameZh="南聖街口" seqNo="2" pgp="0" terminal="0" districtId="1" GoBack="2" latitude="22.5883" longitude="120.308" EXTVoiceNO="03401" />
<Stop Id="3460" routeId="15" nameZh="鎮州路" seqNo="3" pgp="0" terminal="0" districtId="1" GoBack="2" latitude="22.5893" longitude="120.3095" EXTVoiceNO="03460" />
<Stop Id="3459" routeId="15" nameZh="鎮東二街口" seqNo="4" pgp="0" terminal="0" districtId="1" GoBack="2" latitude="22.5915" longitude="120.3113" EXTVoiceNO="03459" />
<Stop Id="2206" routeId="15" nameZh="鎮州路口" seqNo="5" pgp="0" terminal="0" districtId="1" GoBack="2" latitude="22.5917" longitude="120.3124" EXTVoiceNO="02205" />
<Stop Id="2207" routeId="15" nameZh="康定路口" seqNo="6" pgp="0" terminal="0" districtId="1" GoBack="2" latitude="22.5894" longitude="120.3144" EXTVoiceNO="02204" />
<Stop Id="9051" routeId="15" nameZh="康定社區" seqNo="7" pgp="0" terminal="0" districtId="1" GoBack="2" latitude="22.59" longitude="120.3154" EXTVoiceNO="08960" />
<Stop Id="2238" routeId="15" nameZh="鎮海路" seqNo="8" pgp="0" terminal="0" districtId="1" GoBack="2" latitude="22.5911" longitude="120.3165" EXTVoiceNO="02218" />
<Stop Id="2239" routeId="15" nameZh="樹人路" seqNo="9" pgp="0" terminal="0" districtId="1" GoBack="2" latitude="22.5893" longitude="120.3191" EXTVoiceNO="02217" />
<Stop Id="2240" routeId="15" nameZh="前鎮高中站" seqNo="10" pgp="0" terminal="0" districtId="1" GoBack="2" latitude="22.5869" longitude="120.3201" EXTVoiceNO="02037" />
<Stop Id="2170" routeId="15" nameZh="鎮中路口" seqNo="11" pgp="0" terminal="0" districtId="1" GoBack="2" latitude="22.5855" longitude="120.32" EXTVoiceNO="02036" />
<Stop Id="2172" routeId="15" nameZh="同安路" seqNo="12" pgp="0" terminal="0" districtId="1" GoBack="2" latitude="22.5836" longitude="120.3175" EXTVoiceNO="02116" />
<Stop Id="2173" routeId="15" nameZh="德昌路" seqNo="13" pgp="0" terminal="0" districtId="1" GoBack="2" latitude="22.5812" longitude="120.3188" EXTVoiceNO="02114" />
<Stop Id="2062" routeId="15" nameZh="北草衙" seqNo="14" pgp="0" terminal="0" districtId="1" GoBack="2" latitude="22.5809" longitude="120.3229" EXTVoiceNO="02033" />
<Stop Id="2063" routeId="15" nameZh="草衙市場" seqNo="15" pgp="0" terminal="0" districtId="1" GoBack="2" latitude="22.5784" longitude="120.3224" EXTVoiceNO="02032" />
<Stop Id="2064" routeId="15" nameZh="草衙" seqNo="16" pgp="0" terminal="0" districtId="1" GoBack="2" latitude="22.577" longitude="120.3237" EXTVoiceNO="02031" />
<Stop Id="2065" routeId="15" nameZh="佛公" seqNo="17" pgp="0" terminal="0" districtId="1" GoBack="2" latitude="22.5751" longitude="120.3255" EXTVoiceNO="26176" />
<Stop Id="2066" routeId="15" nameZh="金福路口" seqNo="18" pgp="0" terminal="0" districtId="1" GoBack="2" latitude="22.5702" longitude="120.3296" EXTVoiceNO="02027" />
<Stop Id="2067" routeId="15" nameZh="平和路" seqNo="19" pgp="0" terminal="0" districtId="1" GoBack="2" latitude="22.5682" longitude="120.3311" EXTVoiceNO="02026" />
<Stop Id="2068" routeId="15" nameZh="港後路口" seqNo="20" pgp="0" terminal="0" districtId="1" GoBack="2" latitude="22.567" longitude="120.3323" EXTVoiceNO="02025" />
<Stop Id="2069" routeId="15" nameZh="小港天主教堂" seqNo="21" pgp="0" terminal="0" districtId="1" GoBack="2" latitude="22.5651" longitude="120.3335" EXTVoiceNO="02024" />
<Stop Id="2070" routeId="15" nameZh="小港路口" seqNo="22" pgp="0" terminal="0" districtId="1" GoBack="2" latitude="22.5637" longitude="120.3346" EXTVoiceNO="02023" />
<Stop Id="2071" routeId="15" nameZh="民眾服務站" seqNo="23" pgp="0" terminal="0" districtId="1" GoBack="2" latitude="22.5642" longitude="120.3364" EXTVoiceNO="02022" />
<Stop Id="2072" routeId="15" nameZh="小港行政中心" seqNo="24" pgp="0" terminal="0" districtId="1" GoBack="2" latitude="22.5651" longitude="120.3381" EXTVoiceNO="02021" />
<Stop Id="2000" routeId="15" nameZh="小港站" seqNo="25" pgp="0" terminal="0" districtId="1" GoBack="2" latitude="22.5651" longitude="120.3399" EXTVoiceNO="02001" />
<Stop Id="7701" routeId="16A" nameZh="警廣站" seqNo="1" pgp="0" terminal="0" districtId="1" GoBack="1" latitude="22.688" longitude="120.3168" EXTVoiceNO="07701" />
<Stop Id="5918" routeId="16A" nameZh="文府國小" seqNo="2" pgp="0" terminal="0" districtId="1" GoBack="1" latitude="22.6911" longitude="120.3143" EXTVoiceNO="20226" />
<Stop Id="7803" routeId="16A" nameZh="左營新光三越一" seqNo="3" pgp="0" terminal="0" districtId="1" GoBack="1" latitude="22.6889" longitude="120.3106" EXTVoiceNO="20294" />
<Stop Id="5026" routeId="16A" nameZh="高鐵左營站" seqNo="4" pgp="0" terminal="0" districtId="1" GoBack="1" latitude="22.687" longitude="120.3086" EXTVoiceNO="05026" />
<Stop Id="5926" routeId="16A" nameZh="大中路口一" seqNo="5" pgp="0" terminal="0" districtId="1" GoBack="1" latitude="22.6837" longitude="120.3083" EXTVoiceNO="20063" />
<Stop Id="5902" routeId="16A" nameZh="大中路口" seqNo="6" pgp="0" terminal="0" districtId="1" GoBack="1" latitude="22.6827" longitude="120.307" EXTVoiceNO="05206" />
<Stop Id="5903" routeId="16A" nameZh="新光國小" seqNo="7" pgp="0" terminal="0" districtId="1" GoBack="1" latitude="22.6807" longitude="120.3045" EXTVoiceNO="05903" />
<Stop Id="5904" routeId="16A" nameZh="孟子路口" seqNo="8" pgp="0" terminal="0" districtId="1" GoBack="1" latitude="22.6785" longitude="120.3024" EXTVoiceNO="05904" />
<Stop Id="9011" routeId="16A" nameZh="崇德路口" seqNo="9" pgp="0" terminal="0" districtId="1" GoBack="1" latitude="22.6765" longitude="120.3007" EXTVoiceNO="09011" />
<Stop Id="9012" routeId="16A" nameZh="同心新村" seqNo="10" pgp="0" terminal="0" districtId="1" GoBack="1" latitude="22.6742" longitude="120.299" EXTVoiceNO="09012" />
<Stop Id="5685" routeId="16A" nameZh="新莊路口" seqNo="11" pgp="0" terminal="0" districtId="1" GoBack="1" latitude="22.6722" longitude="120.2978" EXTVoiceNO="08964" />
<Stop Id="5620" routeId="16A" nameZh="南屏路口" seqNo="12" pgp="0" terminal="0" districtId="1" GoBack="1" latitude="22.6698" longitude="120.2964" EXTVoiceNO="08965" />
<Stop Id="5621" routeId="16A" nameZh="華榮路" seqNo="13" pgp="0" terminal="0" districtId="1" GoBack="1" latitude="22.6677" longitude="120.2959" EXTVoiceNO="05621" />
<Stop Id="5622" routeId="16A" nameZh="裕誠路口" seqNo="14" pgp="0" terminal="0" districtId="1" GoBack="1" latitude="22.6662" longitude="120.2969" EXTVoiceNO="05622" />
<Stop Id="5623" routeId="16A" nameZh="三民家商" seqNo="15" pgp="0" terminal="0" districtId="1" GoBack="1" latitude="22.666" longitude="120.3008" EXTVoiceNO="05667" />
<Stop Id="8755" routeId="16A" nameZh="捷運巨蛋站" seqNo="16" pgp="0" terminal="0" districtId="1" GoBack="1" latitude="22.6657" longitude="120.3028" EXTVoiceNO="05623" />
<Stop Id="5624" routeId="16A" nameZh="富民路口" seqNo="17" pgp="0" terminal="0" districtId="1" GoBack="1" latitude="22.6658" longitude="120.3049" EXTVoiceNO="08968" />
<Stop Id="5625" routeId="16A" nameZh="富國路口" seqNo="18" pgp="0" terminal="0" districtId="1" GoBack="1" latitude="22.6654" longitude="120.3071" EXTVoiceNO="08969" />
<Stop Id="5905" routeId="16A" nameZh="自由二路口" seqNo="19" pgp="0" terminal="0" districtId="1" GoBack="1" latitude="22.6647" longitude="120.3093" EXTVoiceNO="20398" />
<Stop Id="5927" routeId="16A" nameZh="京城世界" seqNo="20" pgp="0" terminal="0" districtId="1" GoBack="1" latitude="22.6638" longitude="120.3135" EXTVoiceNO="05212" />
<Stop Id="8730" routeId="16A" nameZh="明吉路" seqNo="21" pgp="0" terminal="0" districtId="1" GoBack="1" latitude="22.6632" longitude="120.3136" EXTVoiceNO="20483" />
<Stop Id="8731" routeId="16A" nameZh="明哲路口" seqNo="22" pgp="0" terminal="0" districtId="1" GoBack="1" latitude="22.6606" longitude="120.314" EXTVoiceNO="20485" />
<Stop Id="7723" routeId="16A" nameZh="大樂民族店" seqNo="23" pgp="0" terminal="0" districtId="1" GoBack="1" latitude="22.6597" longitude="120.3144" EXTVoiceNO="20113" />
<Stop Id="5907" routeId="16A" nameZh="鼎中路口" seqNo="24" pgp="0" terminal="0" districtId="1" GoBack="1" latitude="22.6599" longitude="120.3196" EXTVoiceNO="05911" />
<Stop Id="5908" routeId="16A" nameZh="鼎山街" seqNo="25" pgp="0" terminal="0" districtId="1" GoBack="1" latitude="22.6592" longitude="120.3219" EXTVoiceNO="05908" />
<Stop Id="5412" routeId="16A" nameZh="莊敬國小" seqNo="26" pgp="0" terminal="0" districtId="1" GoBack="1" latitude="22.656" longitude="120.323" EXTVoiceNO="05412" />
<Stop Id="5413" routeId="16A" nameZh="立志高中" seqNo="27" pgp="0" terminal="0" districtId="1" GoBack="1" latitude="22.6537" longitude="120.3261" EXTVoiceNO="20359" />
<Stop Id="0227" routeId="16A" nameZh="高應大" seqNo="28" pgp="0" terminal="0" districtId="1" GoBack="1" latitude="22.6517" longitude="120.3283" EXTVoiceNO="00227" />
<Stop Id="0228" routeId="16A" nameZh="高雄工職" seqNo="29" pgp="0" terminal="0" districtId="1" GoBack="1" latitude="22.6508" longitude="120.326" EXTVoiceNO="00228" />
<Stop Id="4027" routeId="16A" nameZh="大順二路" seqNo="30" pgp="0" terminal="0" districtId="1" GoBack="1" latitude="22.6509" longitude="120.3227" EXTVoiceNO="04068" />
<Stop Id="4028" routeId="16A" nameZh="鼎山街口" seqNo="31" pgp="0" terminal="0" districtId="1" GoBack="1" latitude="22.6524" longitude="120.3206" EXTVoiceNO="04067" />
<Stop Id="5175" routeId="16A" nameZh="鼎金國中" seqNo="32" pgp="0" terminal="0" districtId="1" GoBack="1" latitude="22.6548" longitude="120.3197" EXTVoiceNO="05111" />
<Stop Id="5176" routeId="16A" nameZh="鼎金國小" seqNo="33" pgp="0" terminal="0" districtId="1" GoBack="1" latitude="22.6568" longitude="120.3211" EXTVoiceNO="05110" />
<Stop Id="5910" routeId="16A" nameZh="鼎山街" seqNo="1" pgp="0" terminal="0" districtId="1" GoBack="2" latitude="22.6591" longitude="120.3218" EXTVoiceNO="05908" />
<Stop Id="5911" routeId="16A" nameZh="鼎中路口" seqNo="2" pgp="0" terminal="0" districtId="1" GoBack="2" latitude="22.6602" longitude="120.3195" EXTVoiceNO="05911" />
<Stop Id="7705" routeId="16A" nameZh="大樂民族店" seqNo="3" pgp="0" terminal="0" districtId="1" GoBack="2" latitude="22.6598" longitude="120.3148" EXTVoiceNO="20113" />
<Stop Id="8727" routeId="16A" nameZh="明哲路口" seqNo="4" pgp="0" terminal="0" districtId="1" GoBack="2" latitude="22.6608" longitude="120.3142" EXTVoiceNO="20485" />
<Stop Id="8728" routeId="16A" nameZh="明吉路" seqNo="5" pgp="0" terminal="0" districtId="1" GoBack="2" latitude="22.663" longitude="120.3137" EXTVoiceNO="20483" />
<Stop Id="5913" routeId="16A" nameZh="自由二路口" seqNo="6" pgp="0" terminal="0" districtId="1" GoBack="2" latitude="22.6648" longitude="120.3094" EXTVoiceNO="20398" />
<Stop Id="5665" routeId="16A" nameZh="富國路口" seqNo="7" pgp="0" terminal="0" districtId="1" GoBack="2" latitude="22.6654" longitude="120.3073" EXTVoiceNO="08969" />
<Stop Id="5666" routeId="16A" nameZh="富民路口" seqNo="8" pgp="0" terminal="0" districtId="1" GoBack="2" latitude="22.6658" longitude="120.3049" EXTVoiceNO="08968" />
<Stop Id="8753" routeId="16A" nameZh="捷運巨蛋站" seqNo="9" pgp="0" terminal="0" districtId="1" GoBack="2" latitude="22.6658" longitude="120.3029" EXTVoiceNO="05623" />
<Stop Id="5667" routeId="16A" nameZh="三民家商" seqNo="10" pgp="0" terminal="0" districtId="1" GoBack="2" latitude="22.666" longitude="120.3008" EXTVoiceNO="05667" />
<Stop Id="5668" routeId="16A" nameZh="裕誠路口" seqNo="11" pgp="0" terminal="0" districtId="1" GoBack="2" latitude="22.6662" longitude="120.2968" EXTVoiceNO="05622" />
<Stop Id="5669" routeId="16A" nameZh="華榮路" seqNo="12" pgp="0" terminal="0" districtId="1" GoBack="2" latitude="22.6676" longitude="120.296" EXTVoiceNO="05621" />
<Stop Id="5670" routeId="16A" nameZh="南屏路口" seqNo="13" pgp="0" terminal="0" districtId="1" GoBack="2" latitude="22.6698" longitude="120.2965" EXTVoiceNO="08965" />
<Stop Id="5686" routeId="16A" nameZh="新莊路口" seqNo="14" pgp="0" terminal="0" districtId="1" GoBack="2" latitude="22.6721" longitude="120.2978" EXTVoiceNO="08964" />
<Stop Id="9046" routeId="16A" nameZh="同心新村" seqNo="15" pgp="0" terminal="0" districtId="1" GoBack="2" latitude="22.6741" longitude="120.299" EXTVoiceNO="09012" />
<Stop Id="9047" routeId="16A" nameZh="崇德路口" seqNo="16" pgp="0" terminal="0" districtId="1" GoBack="2" latitude="22.6765" longitude="120.3009" EXTVoiceNO="09011" />
<Stop Id="5914" routeId="16A" nameZh="孟子路口" seqNo="17" pgp="0" terminal="0" districtId="1" GoBack="2" latitude="22.6783" longitude="120.3023" EXTVoiceNO="05904" />
<Stop Id="5915" routeId="16A" nameZh="新光國小" seqNo="18" pgp="0" terminal="0" districtId="1" GoBack="2" latitude="22.6806" longitude="120.3046" EXTVoiceNO="05903" />
<Stop Id="5916" routeId="16A" nameZh="大中路口一" seqNo="19" pgp="0" terminal="0" districtId="1" GoBack="2" latitude="22.6826" longitude="120.3071" EXTVoiceNO="20063" />
<Stop Id="5924" routeId="16A" nameZh="大中路口" seqNo="20" pgp="0" terminal="0" districtId="1" GoBack="2" latitude="22.6835" longitude="120.3083" EXTVoiceNO="05206" />
<Stop Id="5917" routeId="16A" nameZh="重平路口" seqNo="21" pgp="0" terminal="0" districtId="1" GoBack="2" latitude="22.6854" longitude="120.3111" EXTVoiceNO="05917" />
<Stop Id="5066" routeId="16A" nameZh="重愛路口" seqNo="22" pgp="0" terminal="0" districtId="1" GoBack="2" latitude="22.6868" longitude="120.3131" EXTVoiceNO="05761" />
<Stop Id="5069" routeId="16A" nameZh="左營新光三越" seqNo="23" pgp="0" terminal="0" districtId="1" GoBack="2" latitude="22.689" longitude="120.3116" EXTVoiceNO="05069" />
<Stop Id="0111" routeId="16A" nameZh="左營新光三越一" seqNo="24" pgp="0" terminal="0" districtId="1" GoBack="2" latitude="22.6891" longitude="120.3109" EXTVoiceNO="20294" />
<Stop Id="5056" routeId="16A" nameZh="高鐵左營站" seqNo="25" pgp="0" terminal="0" districtId="1" GoBack="2" latitude="22.687" longitude="120.3086" EXTVoiceNO="05026" />
<Stop Id="7700" routeId="16A" nameZh="警廣站" seqNo="26" pgp="0" terminal="0" districtId="1" GoBack="2" latitude="22.688" longitude="120.3168" EXTVoiceNO="07701" />
<Stop Id="9254" routeId="23" nameZh="鳳山站" seqNo="1" pgp="0" terminal="0" districtId="1" GoBack="1" latitude="22.6242" longitude="120.357" EXTVoiceNO="20950" />
<Stop Id="0178" routeId="23" nameZh="光遠路" seqNo="2" pgp="0" terminal="0" districtId="1" GoBack="1" latitude="22.6262" longitude="120.3584" EXTVoiceNO="09334" />
<Stop Id="0179" routeId="23" nameZh="市場前" seqNo="3" pgp="0" terminal="0" districtId="1" GoBack="1" latitude="22.6255" longitude="120.3614" EXTVoiceNO="09335" />
<Stop Id="2099" routeId="23" nameZh="鳳山轉運站(捷運大東站)" seqNo="4" pgp="0" terminal="0" districtId="1" GoBack="1" latitude="22.6251" longitude="120.3638" EXTVoiceNO="02099" />
<Stop Id="9026" routeId="23" nameZh="家畜市場" seqNo="5" pgp="0" terminal="0" districtId="1" GoBack="1" latitude="22.6327" longitude="120.3639" EXTVoiceNO="11228" />
<Stop Id="9257" routeId="23" nameZh="鳳仁新村" seqNo="6" pgp="0" terminal="0" districtId="1" GoBack="1" latitude="22.6343" longitude="120.3668" EXTVoiceNO="20953" />
<Stop Id="9035" routeId="23" nameZh="高旗工家" seqNo="7" pgp="0" terminal="0" districtId="1" GoBack="1" latitude="22.6359" longitude="120.3698" EXTVoiceNO="20684" />
<Stop Id="9018" routeId="23" nameZh="金吉順公司" seqNo="8" pgp="0" terminal="0" districtId="1" GoBack="1" latitude="22.6381" longitude="120.3738" EXTVoiceNO="09019" />
<Stop Id="9243" routeId="23" nameZh="僑泰公司" seqNo="9" pgp="0" terminal="0" districtId="1" GoBack="1" latitude="22.6411" longitude="120.3794" EXTVoiceNO="20896" />
<Stop Id="8982" routeId="23" nameZh="吳記工廠" seqNo="10" pgp="0" terminal="0" districtId="1" GoBack="1" latitude="22.6448" longitude="120.3858" EXTVoiceNO="20420" />
<Stop Id="9023" routeId="23" nameZh="南山公司" seqNo="11" pgp="0" terminal="0" districtId="1" GoBack="1" latitude="22.6464" longitude="120.3887" EXTVoiceNO="09024" />
<Stop Id="8959" routeId="23" nameZh="全國加油站" seqNo="12" pgp="0" terminal="0" districtId="1" GoBack="1" latitude="22.6505" longitude="120.392" EXTVoiceNO="20366" />
<Stop Id="966" routeId="23" nameZh="仁美活動中心" seqNo="13" pgp="0" terminal="0" districtId="1" GoBack="1" latitude="22.6536" longitude="120.3938" EXTVoiceNO="00074" />
<Stop Id="8919" routeId="23" nameZh="仁美" seqNo="14" pgp="0" terminal="0" districtId="1" GoBack="1" latitude="22.6555" longitude="120.3941" EXTVoiceNO="20184" />
<Stop Id="9369" routeId="23" nameZh="仁美國小" seqNo="15" pgp="0" terminal="0" districtId="1" GoBack="1" latitude="22.658" longitude="120.3944" EXTVoiceNO="08943" />
<Stop Id="9225" routeId="23" nameZh="華美" seqNo="16" pgp="0" terminal="0" districtId="1" GoBack="1" latitude="22.6584" longitude="120.3921" EXTVoiceNO="20783" />
<Stop Id="9038" routeId="23" nameZh="高碼山莊" seqNo="17" pgp="0" terminal="0" districtId="1" GoBack="1" latitude="22.6582" longitude="120.3894" EXTVoiceNO="09037" />
<Stop Id="9368" routeId="23" nameZh="?埔" seqNo="18" pgp="0" terminal="0" districtId="1" GoBack="1" latitude="22.6583" longitude="120.385" EXTVoiceNO="08942" />
<Stop Id="5690" routeId="23" nameZh="松埔路口" seqNo="19" pgp="0" terminal="0" districtId="1" GoBack="1" latitude="22.6592" longitude="120.3804" EXTVoiceNO="02632" />
<Stop Id="3228" routeId="23" nameZh="活動中心" seqNo="20" pgp="0" terminal="0" districtId="1" GoBack="1" latitude="22.6606" longitude="120.3807" EXTVoiceNO="08207" />
<Stop Id="9519" routeId="23" nameZh="圓照寺" seqNo="21" pgp="0" terminal="0" districtId="1" GoBack="1" latitude="22.6627" longitude="120.3822" EXTVoiceNO="09013" />
<Stop Id="8966" routeId="23" nameZh="圓照寺" seqNo="1" pgp="0" terminal="0" districtId="1" GoBack="2" latitude="22.6588" longitude="120.381" EXTVoiceNO="09013" />
<Stop Id="3234" routeId="23" nameZh="活動中心" seqNo="2" pgp="0" terminal="0" districtId="1" GoBack="2" latitude="22.6607" longitude="120.381" EXTVoiceNO="08207" />
<Stop Id="5691" routeId="23" nameZh="松埔路口" seqNo="3" pgp="0" terminal="0" districtId="1" GoBack="2" latitude="22.6588" longitude="120.3809" EXTVoiceNO="02632" />
<Stop Id="9395" routeId="23" nameZh="?埔" seqNo="4" pgp="0" terminal="0" districtId="1" GoBack="2" latitude="22.658" longitude="120.3847" EXTVoiceNO="08942" />
<Stop Id="9037" routeId="23" nameZh="高碼山莊" seqNo="5" pgp="0" terminal="0" districtId="1" GoBack="2" latitude="22.6582" longitude="120.3894" EXTVoiceNO="09037" />
<Stop Id="9226" routeId="23" nameZh="華美" seqNo="6" pgp="0" terminal="0" districtId="1" GoBack="2" latitude="22.6584" longitude="120.3919" EXTVoiceNO="20783" />
<Stop Id="9394" routeId="23" nameZh="仁美國小" seqNo="7" pgp="0" terminal="0" districtId="1" GoBack="2" latitude="22.658" longitude="120.3942" EXTVoiceNO="08943" />
<Stop Id="8918" routeId="23" nameZh="仁美" seqNo="8" pgp="0" terminal="0" districtId="1" GoBack="2" latitude="22.6555" longitude="120.3941" EXTVoiceNO="20184" />
<Stop Id="967" routeId="23" nameZh="仁美活動中心" seqNo="9" pgp="0" terminal="0" districtId="1" GoBack="2" latitude="22.6537" longitude="120.3938" EXTVoiceNO="00074" />
<Stop Id="8960" routeId="23" nameZh="全國加油站" seqNo="10" pgp="0" terminal="0" districtId="1" GoBack="2" latitude="22.6507" longitude="120.3922" EXTVoiceNO="20366" />
<Stop Id="9024" routeId="23" nameZh="南山公司" seqNo="11" pgp="0" terminal="0" districtId="1" GoBack="2" latitude="22.6464" longitude="120.3888" EXTVoiceNO="09024" />
<Stop Id="8983" routeId="23" nameZh="吳記工廠" seqNo="12" pgp="0" terminal="0" districtId="1" GoBack="2" latitude="22.6448" longitude="120.3857" EXTVoiceNO="20420" />
<Stop Id="9244" routeId="23" nameZh="僑泰公司" seqNo="13" pgp="0" terminal="0" districtId="1" GoBack="2" latitude="22.6411" longitude="120.3794" EXTVoiceNO="20896" />
<Stop Id="9019" routeId="23" nameZh="金吉順公司" seqNo="14" pgp="0" terminal="0" districtId="1" GoBack="2" latitude="22.6381" longitude="120.3736" EXTVoiceNO="09019" />
<Stop Id="9036" routeId="23" nameZh="高旗工家" seqNo="15" pgp="0" terminal="0" districtId="1" GoBack="2" latitude="22.636" longitude="120.3698" EXTVoiceNO="20684" />
<Stop Id="9258" routeId="23" nameZh="鳳仁新村" seqNo="16" pgp="0" terminal="0" districtId="1" GoBack="2" latitude="22.6343" longitude="120.3668" EXTVoiceNO="20953" />
<Stop Id="9027" routeId="23" nameZh="家畜市場" seqNo="17" pgp="0" terminal="0" districtId="1" GoBack="2" latitude="22.6328" longitude="120.3639" EXTVoiceNO="11228" />
<Stop Id="2100" routeId="23" nameZh="鳳山轉運站(捷運大東站)" seqNo="18" pgp="0" terminal="0" districtId="1" GoBack="2" latitude="22.6253" longitude="120.3637" EXTVoiceNO="02099" />
<Stop Id="0390" routeId="23" nameZh="市場前" seqNo="19" pgp="0" terminal="0" districtId="1" GoBack="2" latitude="22.6256" longitude="120.3615" EXTVoiceNO="09335" />
<Stop Id="0391" routeId="23" nameZh="光遠路" seqNo="20" pgp="0" terminal="0" districtId="1" GoBack="2" latitude="22.6261" longitude="120.3586" EXTVoiceNO="09334" />
<Stop Id="9255" routeId="23" nameZh="鳳山站" seqNo="21" pgp="0" terminal="0" districtId="1" GoBack="2" latitude="22.6242" longitude="120.357" EXTVoiceNO="20950" />
<Stop Id="9519" routeId="24A" nameZh="圓照寺" seqNo="1" pgp="0" terminal="0" districtId="1" GoBack="1" latitude="22.6619" longitude="120.3821" EXTVoiceNO="09013" />
<Stop Id="3228" routeId="24A" nameZh="活動中心" seqNo="2" pgp="0" terminal="0" districtId="1" GoBack="1" latitude="22.6606" longitude="120.3806" EXTVoiceNO="08207" />
<Stop Id="8924" routeId="24A" nameZh="天皇別墅" seqNo="3" pgp="0" terminal="0" districtId="1" GoBack="1" latitude="22.6638" longitude="120.3757" EXTVoiceNO="21234" />
<Stop Id="9223" routeId="24A" nameZh="鳥松國中" seqNo="4" pgp="0" terminal="0" districtId="1" GoBack="1" latitude="22.6653" longitude="120.371" EXTVoiceNO="26156" />
<Stop Id="4332" routeId="24A" nameZh="鳥松區公所" seqNo="5" pgp="0" terminal="0" districtId="1" GoBack="1" latitude="22.6598" longitude="120.3641" EXTVoiceNO="17114" />
<Stop Id="1463" routeId="24A" nameZh="鳥松" seqNo="6" pgp="0" terminal="0" districtId="1" GoBack="1" latitude="22.6629" longitude="120.3636" EXTVoiceNO="13370" />
<Stop Id="9475" routeId="24A" nameZh="大仁北路" seqNo="7" pgp="0" terminal="0" districtId="1" GoBack="1" latitude="22.6667" longitude="120.3617" EXTVoiceNO="20064" />
<Stop Id="9862" routeId="24A" nameZh="慈育街口" seqNo="8" pgp="0" terminal="0" districtId="1" GoBack="1" latitude="22.6697" longitude="120.3604" EXTVoiceNO="09862" />
<Stop Id="2198" routeId="24A" nameZh="仁慈公園" seqNo="9" pgp="0" terminal="0" districtId="1" GoBack="1" latitude="22.6721" longitude="120.3591" EXTVoiceNO="20186" />
<Stop Id="9008" routeId="24A" nameZh="仁忠路口" seqNo="10" pgp="0" terminal="0" districtId="1" GoBack="1" latitude="22.6758" longitude="120.357" EXTVoiceNO="20182" />
<Stop Id="2200" routeId="24A" nameZh="登發國小" seqNo="11" pgp="0" terminal="0" districtId="1" GoBack="1" latitude="22.6796" longitude="120.3547" EXTVoiceNO="20778" />
<Stop Id="9006" routeId="24A" nameZh="仁和公園" seqNo="12" pgp="0" terminal="0" districtId="1" GoBack="1" latitude="22.681" longitude="120.3523" EXTVoiceNO="21207" />
<Stop Id="0627" routeId="24A" nameZh="大灣" seqNo="13" pgp="0" terminal="0" districtId="1" GoBack="1" latitude="22.6802" longitude="120.3502" EXTVoiceNO="20121" />
<Stop Id="0626" routeId="24A" nameZh="慈惠宮" seqNo="14" pgp="0" terminal="0" districtId="1" GoBack="1" latitude="22.6782" longitude="120.3476" EXTVoiceNO="00629" />
<Stop Id="2203" routeId="24A" nameZh="大灣國中" seqNo="15" pgp="0" terminal="0" districtId="1" GoBack="1" latitude="22.6765" longitude="120.3404" EXTVoiceNO="09373" />
<Stop Id="9232" routeId="24A" nameZh="極限公園" seqNo="16" pgp="0" terminal="0" districtId="1" GoBack="1" latitude="22.6754" longitude="120.3375" EXTVoiceNO="09422" />
<Stop Id="5183" routeId="24A" nameZh="團管區" seqNo="17" pgp="0" terminal="0" districtId="1" GoBack="1" latitude="22.6723" longitude="120.3314" EXTVoiceNO="05183" />
<Stop Id="8942" routeId="24A" nameZh="鼎貴路口" seqNo="18" pgp="0" terminal="0" districtId="1" GoBack="1" latitude="22.6694" longitude="120.3252" EXTVoiceNO="05204" />
<Stop Id="1713" routeId="24A" nameZh="獅湖國小" seqNo="19" pgp="0" terminal="0" districtId="1" GoBack="1" latitude="22.6729" longitude="120.3224" EXTVoiceNO="05004" />
<Stop Id="8778" routeId="24A" nameZh="鼎中路" seqNo="20" pgp="0" terminal="0" districtId="1" GoBack="1" latitude="22.6734" longitude="120.3216" EXTVoiceNO="05409" />
<Stop Id="5005" routeId="24A" nameZh="榮總" seqNo="21" pgp="0" terminal="0" districtId="1" GoBack="1" latitude="22.6774" longitude="120.3224" EXTVoiceNO="05005" />
<Stop Id="2210" routeId="24A" nameZh="大中路口" seqNo="22" pgp="0" terminal="0" districtId="1" GoBack="1" latitude="22.6778" longitude="120.3187" EXTVoiceNO="05206" />
<Stop Id="5207" routeId="24A" nameZh="菜公路口" seqNo="23" pgp="0" terminal="0" districtId="1" GoBack="1" latitude="22.6752" longitude="120.3182" EXTVoiceNO="04787" />
<Stop Id="2212" routeId="24A" nameZh="文藻外語大學" seqNo="24" pgp="0" terminal="0" districtId="1" GoBack="1" latitude="22.6712" longitude="120.3175" EXTVoiceNO="05208" />
<Stop Id="2213" routeId="24A" nameZh="天祥路口" seqNo="25" pgp="0" terminal="0" districtId="1" GoBack="1" latitude="22.6677" longitude="120.3168" EXTVoiceNO="05408" />
<Stop Id="7032" routeId="24A" nameZh="郵局宿舍" seqNo="26" pgp="0" terminal="0" districtId="1" GoBack="1" latitude="22.6647" longitude="120.3162" EXTVoiceNO="07032" />
<Stop Id="2215" routeId="24A" nameZh="京城世界" seqNo="27" pgp="0" terminal="0" districtId="1" GoBack="1" latitude="22.6638" longitude="120.3145" EXTVoiceNO="05212" />
<Stop Id="2217" routeId="24A" nameZh="自由二路口" seqNo="28" pgp="0" terminal="0" districtId="1" GoBack="1" latitude="22.6649" longitude="120.3092" EXTVoiceNO="20398" />
<Stop Id="2218" routeId="24A" nameZh="富國路口" seqNo="29" pgp="0" terminal="0" districtId="1" GoBack="1" latitude="22.6655" longitude="120.3071" EXTVoiceNO="08969" />
<Stop Id="2219" routeId="24A" nameZh="富民路口" seqNo="30" pgp="0" terminal="0" districtId="1" GoBack="1" latitude="22.6658" longitude="120.3042" EXTVoiceNO="08968" />
<Stop Id="2220" routeId="24A" nameZh="捷運巨蛋站" seqNo="31" pgp="0" terminal="0" districtId="1" GoBack="1" latitude="22.6662" longitude="120.3035" EXTVoiceNO="05623" />
<Stop Id="2221" routeId="24A" nameZh="漢神巨蛋" seqNo="32" pgp="0" terminal="0" districtId="1" GoBack="1" latitude="22.6694" longitude="120.3035" EXTVoiceNO="05016" />
<Stop Id="5673" routeId="24A" nameZh="新庄仔" seqNo="33" pgp="0" terminal="0" districtId="1" GoBack="1" latitude="22.6696" longitude="120.3056" EXTVoiceNO="05617" />
<Stop Id="5617" routeId="24A" nameZh="新庄仔" seqNo="1" pgp="0" terminal="0" districtId="1" GoBack="2" latitude="22.6698" longitude="120.3054" EXTVoiceNO="05617" />
<Stop Id="5665" routeId="24A" nameZh="富國路口" seqNo="2" pgp="0" terminal="0" districtId="1" GoBack="2" latitude="22.6655" longitude="120.3071" EXTVoiceNO="08969" />
<Stop Id="5913" routeId="24A" nameZh="自由二路口" seqNo="3" pgp="0" terminal="0" districtId="1" GoBack="2" latitude="22.6648" longitude="120.3094" EXTVoiceNO="20398" />
<Stop Id="5276" routeId="24A" nameZh="京城世界" seqNo="4" pgp="0" terminal="0" districtId="1" GoBack="2" latitude="22.6639" longitude="120.3144" EXTVoiceNO="05212" />
<Stop Id="7032" routeId="24A" nameZh="郵局宿舍" seqNo="5" pgp="0" terminal="0" districtId="1" GoBack="2" latitude="22.6647" longitude="120.3162" EXTVoiceNO="07032" />
<Stop Id="7061" routeId="24A" nameZh="天祥路口" seqNo="6" pgp="0" terminal="0" districtId="1" GoBack="2" latitude="22.6674" longitude="120.3168" EXTVoiceNO="05408" />
<Stop Id="5281" routeId="24A" nameZh="文藻外語大學" seqNo="7" pgp="0" terminal="0" districtId="1" GoBack="2" latitude="22.6707" longitude="120.3175" EXTVoiceNO="05208" />
<Stop Id="5282" routeId="24A" nameZh="菜公路口" seqNo="8" pgp="0" terminal="0" districtId="1" GoBack="2" latitude="22.6747" longitude="120.3183" EXTVoiceNO="04787" />
<Stop Id="5916" routeId="24A" nameZh="大中路口" seqNo="9" pgp="0" terminal="0" districtId="1" GoBack="2" latitude="22.6778" longitude="120.3187" EXTVoiceNO="05206" />
<Stop Id="5051" routeId="24A" nameZh="榮總" seqNo="10" pgp="0" terminal="0" districtId="1" GoBack="2" latitude="22.6771" longitude="120.3222" EXTVoiceNO="05005" />
<Stop Id="8788" routeId="24A" nameZh="鼎中路" seqNo="11" pgp="0" terminal="0" districtId="1" GoBack="2" latitude="22.6736" longitude="120.3215" EXTVoiceNO="05409" />
<Stop Id="9233" routeId="24A" nameZh="獅湖國小" seqNo="12" pgp="0" terminal="0" districtId="1" GoBack="2" latitude="22.6724" longitude="120.323" EXTVoiceNO="05004" />
<Stop Id="8943" routeId="24A" nameZh="鼎貴路口" seqNo="13" pgp="0" terminal="0" districtId="1" GoBack="2" latitude="22.6699" longitude="120.3251" EXTVoiceNO="05204" />
<Stop Id="5103" routeId="24A" nameZh="團管區" seqNo="14" pgp="0" terminal="0" districtId="1" GoBack="2" latitude="22.6723" longitude="120.3314" EXTVoiceNO="05183" />
<Stop Id="9422" routeId="24A" nameZh="極限公園" seqNo="15" pgp="0" terminal="0" districtId="1" GoBack="2" latitude="22.6754" longitude="120.3375" EXTVoiceNO="09422" />
<Stop Id="9472" routeId="24A" nameZh="大灣國中" seqNo="16" pgp="0" terminal="0" districtId="1" GoBack="2" latitude="22.6765" longitude="120.3404" EXTVoiceNO="09373" />
<Stop Id="0629" routeId="24A" nameZh="慈惠宮" seqNo="17" pgp="0" terminal="0" districtId="1" GoBack="2" latitude="22.6782" longitude="120.3476" EXTVoiceNO="00629" />
<Stop Id="0628" routeId="24A" nameZh="大灣" seqNo="18" pgp="0" terminal="0" districtId="1" GoBack="2" latitude="22.6802" longitude="120.3502" EXTVoiceNO="20121" />
<Stop Id="9007" routeId="24A" nameZh="仁和公園" seqNo="19" pgp="0" terminal="0" districtId="1" GoBack="2" latitude="22.681" longitude="120.3523" EXTVoiceNO="21207" />
<Stop Id="9303" routeId="24A" nameZh="登發國小" seqNo="20" pgp="0" terminal="0" districtId="1" GoBack="2" latitude="22.6796" longitude="120.3547" EXTVoiceNO="20778" />
<Stop Id="2199" routeId="24A" nameZh="仁忠路口" seqNo="21" pgp="0" terminal="0" districtId="1" GoBack="2" latitude="22.6758" longitude="120.357" EXTVoiceNO="20182" />
<Stop Id="9861" routeId="24A" nameZh="仁慈公園" seqNo="22" pgp="0" terminal="0" districtId="1" GoBack="2" latitude="22.6724" longitude="120.3588" EXTVoiceNO="20186" />
<Stop Id="2197" routeId="24A" nameZh="慈育街口" seqNo="23" pgp="0" terminal="0" districtId="1" GoBack="2" latitude="22.6695" longitude="120.3606" EXTVoiceNO="09862" />
<Stop Id="2196" routeId="24A" nameZh="大仁北路" seqNo="24" pgp="0" terminal="0" districtId="1" GoBack="2" latitude="22.6667" longitude="120.3617" EXTVoiceNO="20064" />
<Stop Id="9222" routeId="24A" nameZh="鳥松" seqNo="25" pgp="0" terminal="0" districtId="1" GoBack="2" latitude="22.6617" longitude="120.3636" EXTVoiceNO="13370" />
<Stop Id="9367" routeId="24A" nameZh="鳥松區公所(神農)" seqNo="26" pgp="0" terminal="0" districtId="1" GoBack="2" latitude="22.6593" longitude="120.3648" EXTVoiceNO="14332" />
<Stop Id="9299" routeId="24A" nameZh="鳥松國中" seqNo="27" pgp="0" terminal="0" districtId="1" GoBack="2" latitude="22.6653" longitude="120.371" EXTVoiceNO="26156" />
<Stop Id="9009" routeId="24A" nameZh="天皇別墅" seqNo="28" pgp="0" terminal="0" districtId="1" GoBack="2" latitude="22.6638" longitude="120.3757" EXTVoiceNO="21234" />
<Stop Id="3234" routeId="24A" nameZh="活動中心" seqNo="29" pgp="0" terminal="0" districtId="1" GoBack="2" latitude="22.6606" longitude="120.3806" EXTVoiceNO="08207" />
<Stop Id="9520" routeId="24A" nameZh="圓照寺" seqNo="30" pgp="0" terminal="0" districtId="1" GoBack="2" latitude="22.6627" longitude="120.3822" EXTVoiceNO="09013" />
<Stop Id="9230" routeId="24B" nameZh="楠梓站" seqNo="1" pgp="0" terminal="0" districtId="1" GoBack="1" latitude="22.7265" longitude="120.325" EXTVoiceNO="01678" />
<Stop Id="1589" routeId="24B" nameZh="媽祖廟前" seqNo="2" pgp="0" terminal="0" districtId="1" GoBack="1" latitude="22.7284" longitude="120.3303" EXTVoiceNO="09306" />
<Stop Id="7111" routeId="24B" nameZh="少年法院" seqNo="3" pgp="0" terminal="0" districtId="1" GoBack="1" latitude="22.7309" longitude="120.3353" EXTVoiceNO="17111" />
<Stop Id="9127" routeId="24B" nameZh="外埔" seqNo="4" pgp="0" terminal="0" districtId="1" GoBack="1" latitude="22.7313" longitude="120.3372" EXTVoiceNO="20290" />
<Stop Id="4843" routeId="24B" nameZh="三民路" seqNo="5" pgp="0" terminal="0" districtId="1" GoBack="1" latitude="22.7307" longitude="120.3433" EXTVoiceNO="20029" />
<Stop Id="0173" routeId="24B" nameZh="大社農會" seqNo="6" pgp="0" terminal="0" districtId="1" GoBack="1" latitude="22.7296" longitude="120.3468" EXTVoiceNO="20088" />
<Stop Id="7929" routeId="24B" nameZh="三奶里" seqNo="7" pgp="0" terminal="0" districtId="1" GoBack="1" latitude="22.7269" longitude="120.3484" EXTVoiceNO="07929" />
<Stop Id="0968" routeId="24B" nameZh="林子邊" seqNo="8" pgp="0" terminal="0" districtId="1" GoBack="1" latitude="22.7224" longitude="120.3505" EXTVoiceNO="07930" />
<Stop Id="2695" routeId="24B" nameZh="營口路" seqNo="9" pgp="0" terminal="0" districtId="1" GoBack="1" latitude="22.7172" longitude="120.3514" EXTVoiceNO="02613" />
<Stop Id="7950" routeId="24B" nameZh="後庄" seqNo="10" pgp="0" terminal="0" districtId="1" GoBack="1" latitude="22.7146" longitude="120.3521" EXTVoiceNO="07950" />
<Stop Id="7021" routeId="24B" nameZh="水管路口" seqNo="11" pgp="0" terminal="0" districtId="1" GoBack="1" latitude="22.7092" longitude="120.3532" EXTVoiceNO="20243" />
<Stop Id="9479" routeId="24B" nameZh="文武里" seqNo="12" pgp="0" terminal="0" districtId="1" GoBack="1" latitude="22.7038" longitude="120.3538" EXTVoiceNO="08984" />
<Stop Id="7933" routeId="24B" nameZh="仁武" seqNo="13" pgp="0" terminal="0" districtId="1" GoBack="1" latitude="22.7022" longitude="120.3519" EXTVoiceNO="20183" />
<Stop Id="1170" routeId="24B" nameZh="派出所" seqNo="14" pgp="0" terminal="0" districtId="1" GoBack="1" latitude="22.7016" longitude="120.3485" EXTVoiceNO="09322" />
<Stop Id="9436" routeId="24B" nameZh="鳳仁路口" seqNo="15" pgp="0" terminal="0" districtId="1" GoBack="1" latitude="22.701" longitude="120.3459" EXTVoiceNO="09436" />
<Stop Id="7946" routeId="24B" nameZh="通法寺" seqNo="16" pgp="0" terminal="0" districtId="1" GoBack="1" latitude="22.6989" longitude="120.3467" EXTVoiceNO="07935" />
<Stop Id="10043" routeId="24B" nameZh="八卦寮" seqNo="17" pgp="0" terminal="0" districtId="1" GoBack="1" latitude="22.696" longitude="120.3482" EXTVoiceNO="20021" />
<Stop Id="7936" routeId="24B" nameZh="新庄" seqNo="18" pgp="0" terminal="0" districtId="1" GoBack="1" latitude="22.6925" longitude="120.3496" EXTVoiceNO="07936" />
<Stop Id="8961" routeId="24B" nameZh="名湖社區" seqNo="19" pgp="0" terminal="0" districtId="1" GoBack="1" latitude="22.6867" longitude="120.3528" EXTVoiceNO="20371" />
<Stop Id="9645" routeId="24B" nameZh="灣子內" seqNo="20" pgp="0" terminal="0" districtId="1" GoBack="1" latitude="22.6823" longitude="120.355" EXTVoiceNO="13447" />
<Stop Id="9006" routeId="24B" nameZh="仁和公園" seqNo="21" pgp="0" terminal="0" districtId="1" GoBack="1" latitude="22.681" longitude="120.3523" EXTVoiceNO="21207" />
<Stop Id="0628" routeId="24B" nameZh="大灣" seqNo="22" pgp="0" terminal="0" districtId="1" GoBack="1" latitude="22.6802" longitude="120.3502" EXTVoiceNO="20121" />
<Stop Id="0629" routeId="24B" nameZh="慈惠宮" seqNo="23" pgp="0" terminal="0" districtId="1" GoBack="1" latitude="22.6782" longitude="120.3476" EXTVoiceNO="00629" />
<Stop Id="2203" routeId="24B" nameZh="大灣國中" seqNo="24" pgp="0" terminal="0" districtId="1" GoBack="1" latitude="22.6765" longitude="120.3404" EXTVoiceNO="09373" />
<Stop Id="9422" routeId="24B" nameZh="極限公園" seqNo="25" pgp="0" terminal="0" districtId="1" GoBack="1" latitude="22.6754" longitude="120.3375" EXTVoiceNO="09422" />
<Stop Id="2205" routeId="24B" nameZh="後備指揮部" seqNo="26" pgp="0" terminal="0" districtId="1" GoBack="1" latitude="22.6723" longitude="120.3314" EXTVoiceNO="" />
<Stop Id="5203" routeId="24B" nameZh="鼎金後路" seqNo="27" pgp="0" terminal="0" districtId="1" GoBack="1" latitude="22.6698" longitude="120.3252" EXTVoiceNO="05203" />
<Stop Id="9233" routeId="24B" nameZh="獅湖國小" seqNo="28" pgp="0" terminal="0" districtId="1" GoBack="1" latitude="22.6724" longitude="120.323" EXTVoiceNO="05004" />
<Stop Id="8788" routeId="24B" nameZh="鼎中路" seqNo="29" pgp="0" terminal="0" districtId="1" GoBack="1" latitude="22.6736" longitude="120.3215" EXTVoiceNO="05409" />
<Stop Id="5051" routeId="24B" nameZh="榮總" seqNo="30" pgp="0" terminal="0" districtId="1" GoBack="1" latitude="22.6771" longitude="120.3222" EXTVoiceNO="05005" />
<Stop Id="2210" routeId="24B" nameZh="大中路口" seqNo="31" pgp="0" terminal="0" districtId="1" GoBack="1" latitude="22.6778" longitude="120.3187" EXTVoiceNO="05206" />
<Stop Id="5282" routeId="24B" nameZh="菜公路口" seqNo="32" pgp="0" terminal="0" districtId="1" GoBack="1" latitude="22.6747" longitude="120.3183" EXTVoiceNO="04787" />
<Stop Id="9010" routeId="24B" nameZh="文藻外語大學" seqNo="33" pgp="0" terminal="0" districtId="1" GoBack="1" latitude="22.6704" longitude="120.3176" EXTVoiceNO="05208" />
<Stop Id="5209" routeId="24B" nameZh="民族路口" seqNo="34" pgp="0" terminal="0" districtId="1" GoBack="1" latitude="22.6684" longitude="120.316" EXTVoiceNO="08303" />
<Stop Id="5614" routeId="24B" nameZh="興隆寺" seqNo="35" pgp="0" terminal="0" districtId="1" GoBack="1" latitude="22.6686" longitude="120.3125" EXTVoiceNO="05676" />
<Stop Id="5674" routeId="24B" nameZh="新莊國小" seqNo="36" pgp="0" terminal="0" districtId="1" GoBack="1" latitude="22.6691" longitude="120.308" EXTVoiceNO="07674" />
<Stop Id="5617" routeId="24B" nameZh="新庄仔" seqNo="37" pgp="0" terminal="0" districtId="1" GoBack="1" latitude="22.6698" longitude="120.3054" EXTVoiceNO="05617" />
<Stop Id="2221" routeId="24B" nameZh="漢神巨蛋" seqNo="38" pgp="0" terminal="0" districtId="1" GoBack="1" latitude="22.6694" longitude="120.3035" EXTVoiceNO="05016" />
<Stop Id="5017" routeId="24B" nameZh="捷運巨蛋站" seqNo="39" pgp="0" terminal="0" districtId="1" GoBack="1" latitude="22.665" longitude="120.303" EXTVoiceNO="05623" />
<Stop Id="5038" routeId="24B" nameZh="明誠路口" seqNo="40" pgp="0" terminal="0" districtId="1" GoBack="1" latitude="22.6607" longitude="120.3031" EXTVoiceNO="05846" />
<Stop Id="5020" routeId="24B" nameZh="捷運凹子底站" seqNo="41" pgp="0" terminal="0" districtId="1" GoBack="1" latitude="22.6568" longitude="120.303" EXTVoiceNO="04062" />
<Stop Id="4034" routeId="24B" nameZh="龍德路口" seqNo="42" pgp="0" terminal="0" districtId="1" GoBack="1" latitude="22.6542" longitude="120.3035" EXTVoiceNO="04061" />
<Stop Id="5022" routeId="24B" nameZh="同盟路口" seqNo="43" pgp="0" terminal="0" districtId="1" GoBack="1" latitude="22.6515" longitude="120.3036" EXTVoiceNO="05022" />
<Stop Id="2838" routeId="24B" nameZh="捷運後驛站" seqNo="44" pgp="0" terminal="0" districtId="1" GoBack="1" latitude="22.648" longitude="120.3035" EXTVoiceNO="05024" />
<Stop Id="5025" routeId="24B" nameZh="十全路口" seqNo="45" pgp="0" terminal="0" districtId="1" GoBack="1" latitude="22.6451" longitude="120.3029" EXTVoiceNO="05025" />
<Stop Id="10217" routeId="24B" nameZh="六合夜市" seqNo="46" pgp="0" terminal="0" districtId="1" GoBack="1" latitude="22.6343" longitude="120.302" EXTVoiceNO="00121" />
<Stop Id="1396" routeId="24B" nameZh="美麗島站" seqNo="47" pgp="0" terminal="0" districtId="1" GoBack="1" latitude="22.6305" longitude="120.3017" EXTVoiceNO="00120" />
<Stop Id="5137" routeId="24B" nameZh="中央公園" seqNo="48" pgp="0" terminal="0" districtId="1" GoBack="1" latitude="22.6251" longitude="120.301" EXTVoiceNO="05137" />
<Stop Id="2051" routeId="24B" nameZh="新田路口" seqNo="49" pgp="0" terminal="0" districtId="1" GoBack="1" latitude="22.6221" longitude="120.3012" EXTVoiceNO="07268" />
<Stop Id="2052" routeId="24B" nameZh="苓雅路口" seqNo="50" pgp="0" terminal="0" districtId="1" GoBack="1" latitude="22.6188" longitude="120.3025" EXTVoiceNO="02150" />
<Stop Id="4085" routeId="24B" nameZh="苓雅國中" seqNo="51" pgp="0" terminal="0" districtId="1" GoBack="1" latitude="22.6176" longitude="120.3051" EXTVoiceNO="01216" />
<Stop Id="4011" routeId="24B" nameZh="忠孝路口" seqNo="52" pgp="0" terminal="0" districtId="1" GoBack="1" latitude="22.6185" longitude="120.3081" EXTVoiceNO="00410" />
<Stop Id="3314" routeId="24B" nameZh="市政大樓" seqNo="53" pgp="0" terminal="0" districtId="1" GoBack="1" latitude="22.6204" longitude="120.3103" EXTVoiceNO="01121" />
<Stop Id="1027" routeId="24B" nameZh="青年路口" seqNo="54" pgp="0" terminal="0" districtId="1" GoBack="1" latitude="22.6231" longitude="120.3092" EXTVoiceNO="01019" />
<Stop Id="1557" routeId="24B" nameZh="雄商(A)" seqNo="55" pgp="0" terminal="0" districtId="1" GoBack="1" latitude="22.6244" longitude="120.3087" EXTVoiceNO="01557" />
<Stop Id="1557" routeId="24B" nameZh="雄商(B)" seqNo="56" pgp="0" terminal="0" districtId="1" GoBack="1" latitude="22.6252" longitude="120.3076" EXTVoiceNO="20796" />
<Stop Id="0039" routeId="24B" nameZh="新興高中" seqNo="57" pgp="0" terminal="0" districtId="1" GoBack="1" latitude="22.6247" longitude="120.3059" EXTVoiceNO="00014" />
<Stop Id="0015" routeId="24B" nameZh="新崛江" seqNo="58" pgp="0" terminal="0" districtId="1" GoBack="1" latitude="22.6238" longitude="120.3027" EXTVoiceNO="00015" />
<Stop Id="0016" routeId="24B" nameZh="城市光廊" seqNo="59" pgp="0" terminal="0" districtId="1" GoBack="1" latitude="22.623" longitude="120.3004" EXTVoiceNO="00037" />
<Stop Id="0036" routeId="24B" nameZh="大立百貨" seqNo="60" pgp="0" terminal="0" districtId="1" GoBack="1" latitude="22.6214" longitude="120.2962" EXTVoiceNO="00036" />
<Stop Id="1290" routeId="24B" nameZh="高雄女中" seqNo="61" pgp="0" terminal="0" districtId="1" GoBack="1" latitude="22.6206" longitude="120.2922" EXTVoiceNO="00018" />
<Stop Id="0034" routeId="24B" nameZh="大成街口" seqNo="62" pgp="0" terminal="0" districtId="1" GoBack="1" latitude="22.6211" longitude="120.2886" EXTVoiceNO="09297" />
<Stop Id="8824" routeId="24B" nameZh="大智路口" seqNo="63" pgp="0" terminal="0" districtId="1" GoBack="1" latitude="22.6224" longitude="120.2862" EXTVoiceNO="00020" />
<Stop Id="0021" routeId="24B" nameZh="大勇路口" seqNo="64" pgp="0" terminal="0" districtId="1" GoBack="1" latitude="22.6242" longitude="120.2825" EXTVoiceNO="00021" />
<Stop Id="0542" routeId="24B" nameZh="國際商場" seqNo="65" pgp="0" terminal="0" districtId="1" GoBack="1" latitude="22.6253" longitude="120.2818" EXTVoiceNO="00542" />
<Stop Id="0531" routeId="24B" nameZh="大公路" seqNo="66" pgp="0" terminal="0" districtId="1" GoBack="1" latitude="22.6264" longitude="120.2851" EXTVoiceNO="00543" />
<Stop Id="0531" routeId="24B" nameZh="大公路" seqNo="1" pgp="0" terminal="0" districtId="1" GoBack="2" latitude="22.6264" longitude="120.2851" EXTVoiceNO="00543" />
<Stop Id="0532" routeId="24B" nameZh="國際商場" seqNo="2" pgp="0" terminal="0" districtId="1" GoBack="2" latitude="22.6253" longitude="120.2815" EXTVoiceNO="00542" />
<Stop Id="0032" routeId="24B" nameZh="大勇路口" seqNo="3" pgp="0" terminal="0" districtId="1" GoBack="2" latitude="22.624" longitude="120.2827" EXTVoiceNO="00021" />
<Stop Id="2225" routeId="24B" nameZh="大智路口" seqNo="4" pgp="0" terminal="0" districtId="1" GoBack="2" latitude="22.6224" longitude="120.2861" EXTVoiceNO="00020" />
<Stop Id="0155" routeId="24B" nameZh="大成街口" seqNo="5" pgp="0" terminal="0" districtId="1" GoBack="2" latitude="22.6211" longitude="120.2886" EXTVoiceNO="09297" />
<Stop Id="1290" routeId="24B" nameZh="高雄女中" seqNo="6" pgp="0" terminal="0" districtId="1" GoBack="2" latitude="22.6206" longitude="120.2922" EXTVoiceNO="00018" />
<Stop Id="0017" routeId="24B" nameZh="大立百貨" seqNo="7" pgp="0" terminal="0" districtId="1" GoBack="2" latitude="22.6215" longitude="120.2962" EXTVoiceNO="00036" />
<Stop Id="0037" routeId="24B" nameZh="城市光廊" seqNo="8" pgp="0" terminal="0" districtId="1" GoBack="2" latitude="22.6226" longitude="120.2999" EXTVoiceNO="00037" />
<Stop Id="0038" routeId="24B" nameZh="新崛江" seqNo="9" pgp="0" terminal="0" districtId="1" GoBack="2" latitude="22.6236" longitude="120.3028" EXTVoiceNO="00015" />
<Stop Id="0014" routeId="24B" nameZh="新興高中" seqNo="10" pgp="0" terminal="0" districtId="1" GoBack="2" latitude="22.6248" longitude="120.3057" EXTVoiceNO="00014" />
<Stop Id="9228" routeId="24B" nameZh="雄商(B)" seqNo="11" pgp="0" terminal="0" districtId="1" GoBack="2" latitude="22.6252" longitude="120.3076" EXTVoiceNO="20796" />
<Stop Id="9227" routeId="24B" nameZh="雄商(A)" seqNo="12" pgp="0" terminal="0" districtId="1" GoBack="2" latitude="22.6243" longitude="120.3087" EXTVoiceNO="01557" />
<Stop Id="1027" routeId="24B" nameZh="青年路口" seqNo="13" pgp="0" terminal="0" districtId="1" GoBack="2" latitude="22.6231" longitude="120.3092" EXTVoiceNO="01019" />
<Stop Id="3329" routeId="24B" nameZh="市政大樓" seqNo="14" pgp="0" terminal="0" districtId="1" GoBack="2" latitude="22.6201" longitude="120.3103" EXTVoiceNO="01121" />
<Stop Id="4084" routeId="24B" nameZh="忠孝路口" seqNo="15" pgp="0" terminal="0" districtId="1" GoBack="2" latitude="22.6188" longitude="120.3082" EXTVoiceNO="00410" />
<Stop Id="1214" routeId="24B" nameZh="苓雅國中" seqNo="16" pgp="0" terminal="0" districtId="1" GoBack="2" latitude="22.6176" longitude="120.3049" EXTVoiceNO="01216" />
<Stop Id="2048" routeId="24B" nameZh="苓雅路口" seqNo="17" pgp="0" terminal="0" districtId="1" GoBack="2" latitude="22.6197" longitude="120.3024" EXTVoiceNO="02150" />
<Stop Id="2049" routeId="24B" nameZh="新田路口" seqNo="18" pgp="0" terminal="0" districtId="1" GoBack="2" latitude="22.6219" longitude="120.3016" EXTVoiceNO="07268" />
<Stop Id="5149" routeId="24B" nameZh="中央公園" seqNo="19" pgp="0" terminal="0" districtId="1" GoBack="2" latitude="22.6248" longitude="120.3014" EXTVoiceNO="05137" />
<Stop Id="1397" routeId="24B" nameZh="美麗島站" seqNo="20" pgp="0" terminal="0" districtId="1" GoBack="2" latitude="22.6301" longitude="120.302" EXTVoiceNO="00120" />
<Stop Id="10217" routeId="24B" nameZh="六合夜市" seqNo="21" pgp="0" terminal="0" districtId="1" GoBack="2" latitude="22.6334" longitude="120.3023" EXTVoiceNO="00121" />
<Stop Id="2837" routeId="24B" nameZh="十全路口" seqNo="22" pgp="0" terminal="0" districtId="1" GoBack="2" latitude="22.645" longitude="120.3031" EXTVoiceNO="05025" />
<Stop Id="5024" routeId="24B" nameZh="捷運後驛站" seqNo="23" pgp="0" terminal="0" districtId="1" GoBack="2" latitude="22.6478" longitude="120.3035" EXTVoiceNO="05024" />
<Stop Id="5022" routeId="24B" nameZh="同盟路口" seqNo="24" pgp="0" terminal="0" districtId="1" GoBack="2" latitude="22.6515" longitude="120.3036" EXTVoiceNO="05022" />
<Stop Id="4034" routeId="24B" nameZh="龍德路口" seqNo="25" pgp="0" terminal="0" districtId="1" GoBack="2" latitude="22.6542" longitude="120.3035" EXTVoiceNO="04061" />
<Stop Id="0936" routeId="24B" nameZh="明誠路口" seqNo="26" pgp="0" terminal="0" districtId="1" GoBack="2" latitude="22.6617" longitude="120.3033" EXTVoiceNO="05846" />
<Stop Id="5039" routeId="24B" nameZh="捷運巨蛋站" seqNo="27" pgp="0" terminal="0" districtId="1" GoBack="2" latitude="22.6661" longitude="120.3035" EXTVoiceNO="05623" />
<Stop Id="5673" routeId="24B" nameZh="新庄仔" seqNo="28" pgp="0" terminal="0" districtId="1" GoBack="2" latitude="22.6696" longitude="120.3056" EXTVoiceNO="05617" />
<Stop Id="5674" routeId="24B" nameZh="新莊國小" seqNo="29" pgp="0" terminal="0" districtId="1" GoBack="2" latitude="22.6691" longitude="120.308" EXTVoiceNO="07674" />
<Stop Id="5676" routeId="24B" nameZh="興隆寺" seqNo="30" pgp="0" terminal="0" districtId="1" GoBack="2" latitude="22.6685" longitude="120.3126" EXTVoiceNO="05676" />
<Stop Id="5280" routeId="24B" nameZh="民族路口" seqNo="31" pgp="0" terminal="0" districtId="1" GoBack="2" latitude="22.6685" longitude="120.316" EXTVoiceNO="08303" />
<Stop Id="0453" routeId="24B" nameZh="文藻外語大學" seqNo="32" pgp="0" terminal="0" districtId="1" GoBack="2" latitude="22.6704" longitude="120.3176" EXTVoiceNO="05208" />
<Stop Id="5005" routeId="24B" nameZh="榮總" seqNo="33" pgp="0" terminal="0" districtId="1" GoBack="2" latitude="22.6774" longitude="120.3224" EXTVoiceNO="05005" />
<Stop Id="8778" routeId="24B" nameZh="鼎中路" seqNo="34" pgp="0" terminal="0" districtId="1" GoBack="2" latitude="22.6734" longitude="120.3216" EXTVoiceNO="05409" />
<Stop Id="1713" routeId="24B" nameZh="獅湖國小" seqNo="35" pgp="0" terminal="0" districtId="1" GoBack="2" latitude="22.6729" longitude="120.3224" EXTVoiceNO="05004" />
<Stop Id="2205" routeId="24B" nameZh="後備指揮部" seqNo="36" pgp="0" terminal="0" districtId="1" GoBack="2" latitude="22.6723" longitude="120.3314" EXTVoiceNO="" />
<Stop Id="9472" routeId="24B" nameZh="大灣國中" seqNo="37" pgp="0" terminal="0" districtId="1" GoBack="2" latitude="22.6765" longitude="120.3404" EXTVoiceNO="09373" />
<Stop Id="0626" routeId="24B" nameZh="慈惠宮" seqNo="38" pgp="0" terminal="0" districtId="1" GoBack="2" latitude="22.6782" longitude="120.3476" EXTVoiceNO="00629" />
<Stop Id="0627" routeId="24B" nameZh="大灣" seqNo="39" pgp="0" terminal="0" districtId="1" GoBack="2" latitude="22.6802" longitude="120.3502" EXTVoiceNO="20121" />
<Stop Id="9007" routeId="24B" nameZh="仁和公園" seqNo="40" pgp="0" terminal="0" districtId="1" GoBack="2" latitude="22.681" longitude="120.3523" EXTVoiceNO="21207" />
<Stop Id="9704" routeId="24B" nameZh="灣子內" seqNo="41" pgp="0" terminal="0" districtId="1" GoBack="2" latitude="22.6823" longitude="120.355" EXTVoiceNO="13447" />
<Stop Id="0750" routeId="24B" nameZh="名湖社區" seqNo="42" pgp="0" terminal="0" districtId="1" GoBack="2" latitude="22.6867" longitude="120.3528" EXTVoiceNO="20371" />
<Stop Id="0194" routeId="24B" nameZh="新庄" seqNo="43" pgp="0" terminal="0" districtId="1" GoBack="2" latitude="22.6928" longitude="120.3497" EXTVoiceNO="07936" />
<Stop Id="10043" routeId="24B" nameZh="八卦寮" seqNo="44" pgp="0" terminal="0" districtId="1" GoBack="2" latitude="22.696" longitude="120.3482" EXTVoiceNO="20021" />
<Stop Id="0986" routeId="24B" nameZh="通法寺" seqNo="45" pgp="0" terminal="0" districtId="1" GoBack="2" latitude="22.6989" longitude="120.3468" EXTVoiceNO="07935" />
<Stop Id="2127" routeId="24B" nameZh="鳳仁路口" seqNo="46" pgp="0" terminal="0" districtId="1" GoBack="2" latitude="22.701" longitude="120.3459" EXTVoiceNO="09436" />
<Stop Id="9293" routeId="24B" nameZh="派出所" seqNo="47" pgp="0" terminal="0" districtId="1" GoBack="2" latitude="22.7016" longitude="120.3485" EXTVoiceNO="09322" />
<Stop Id="7947" routeId="24B" nameZh="仁武" seqNo="48" pgp="0" terminal="0" districtId="1" GoBack="2" latitude="22.7022" longitude="120.3519" EXTVoiceNO="20183" />
<Stop Id="0447" routeId="24B" nameZh="文武里" seqNo="49" pgp="0" terminal="0" districtId="1" GoBack="2" latitude="22.7038" longitude="120.3538" EXTVoiceNO="08984" />
<Stop Id="7021" routeId="24B" nameZh="水管路口" seqNo="50" pgp="0" terminal="0" districtId="1" GoBack="2" latitude="22.7092" longitude="120.3532" EXTVoiceNO="20243" />
<Stop Id="7950" routeId="24B" nameZh="後庄" seqNo="51" pgp="0" terminal="0" districtId="1" GoBack="2" latitude="22.7146" longitude="120.3521" EXTVoiceNO="07950" />
<Stop Id="9477" routeId="24B" nameZh="營口路" seqNo="52" pgp="0" terminal="0" districtId="1" GoBack="2" latitude="22.7176" longitude="120.3513" EXTVoiceNO="02613" />
<Stop Id="7951" routeId="24B" nameZh="林子邊" seqNo="53" pgp="0" terminal="0" districtId="1" GoBack="2" latitude="22.7225" longitude="120.3504" EXTVoiceNO="07930" />
<Stop Id="7952" routeId="24B" nameZh="三奶里" seqNo="54" pgp="0" terminal="0" districtId="1" GoBack="2" latitude="22.7269" longitude="120.3484" EXTVoiceNO="07929" />
<Stop Id="9452" routeId="24B" nameZh="大社農會" seqNo="55" pgp="0" terminal="0" districtId="1" GoBack="2" latitude="22.7296" longitude="120.3468" EXTVoiceNO="20088" />
<Stop Id="0074" routeId="24B" nameZh="三民路" seqNo="56" pgp="0" terminal="0" districtId="1" GoBack="2" latitude="22.7307" longitude="120.3433" EXTVoiceNO="20029" />
<Stop Id="0600" routeId="24B" nameZh="外埔" seqNo="57" pgp="0" terminal="0" districtId="1" GoBack="2" latitude="22.7313" longitude="120.3372" EXTVoiceNO="20290" />
<Stop Id="0432" routeId="24B" nameZh="少年法院" seqNo="58" pgp="0" terminal="0" districtId="1" GoBack="2" latitude="22.731" longitude="120.3353" EXTVoiceNO="17111" />
